id,nom,url,website,rating,nbAvis,latitude,longitude,typeR,adresse,priceRange,activiteType,activiteSubType,activiteCategory,restaurantType,restaurantCategory,restaurantCuisine,restaurantDietaryRestrictions,hotelType,hotelpriceRange
188467,Place des Vosges,https://www.tripadvisor.fr/Attraction_Review-g187147-d188467-Reviews-Place_des_Vosges-Paris_Ile_de_France.html,http://en.parisinfo.com/transport/73189/Place-des-Vosges,4.108407020568848,5663,48.855614,2.365553,A,"Place des Vosges 4th Arrondissement, 75004 Paris France",,attraction,Sites et monuments,Sites touristiques,,,,,,
188468,Rue des Francs Bourgeois,https://www.tripadvisor.fr/Attraction_Review-g187147-d188468-Reviews-Rue_des_Francs_Bourgeois-Paris_Ile_de_France.html,,3.3165323734283447,73,48.85814,2.35988,A,"Rue des Francs-Bourgeois, 75003 Paris France",,attraction,Sites et monuments,Sites touristiques,,,,,,
188470,Village Saint-Paul,https://www.tripadvisor.fr/Attraction_Review-g187147-d188470-Reviews-Village_St_Paul-Paris_Ile_de_France.html,http://www.levillagesaintpaul.com/,3.017118453979492,98,48.853733,2.361295,A,"Rue Saint-paul, 75004 Paris France",,attraction,"Quartiers, Boutiques de cadeaux ou spécialisées","Shopping, Sites touristiques, Autre",,,,,,
188471,Au Passe-partout,https://www.tripadvisor.fr/Attraction_Review-g187147-d188471-Reviews-Au_Passe_Partout-Paris_Ile_de_France.html,,2.743157148361206,2,48.85347,2.3616,A,"21 rue Saint Paul, 75004 Paris France",,attraction,Magasins d'antiquités,Shopping,,,,,,
188472,Cloître des Billettes,https://www.tripadvisor.fr/Attraction_Review-g187147-d188472-Reviews-Cloitre_des_Billettes-Paris_Ile_de_France.html,,2.9429874420166016,23,48.858,2.35498,A,"24 rue des Archives, 75004 Paris France",,attraction,Sites sacrés et religieux,Sites touristiques,,,,,,
188493,La Rosa Rossa,https://www.tripadvisor.fr/Attraction_Review-g187147-d188493-Reviews-La_Rosa_Rossa-Paris_Ile_de_France.html,,,0,48.85825,2.35941,A,"45 rue des Francs Bourgeois, 75004 Paris France",,,Boutiques de cadeaux ou spécialisées,Shopping,,,,,,
188679,Cathédrale Notre-Dame de Paris,https://www.tripadvisor.fr/Attraction_Review-g187147-d188679-Reviews-Cathedrale_Notre_Dame_de_Paris-Paris_Ile_de_France.html,https://www.notredamedeparis.fr/,4.825919628143311,71258,48.853,2.3498,A,"6 Parvis Notre-Dame Place Jean-Paul II, 75004 Paris France",,attraction,"Bâtiments architecturaux, Églises et cathédrales, Sites historiques",Sites touristiques,,,,,,
188738,Le Pavillon de la Reine,,,4.593979835510254,1056,48.85628,2.366014,H,,€€€€,,,,,,,,hotel,> 400€
188745,Hotel Caron de Beaumarchais,,,4.580426692962647,848,48.856445,2.356719,H,,€€,,,,,,,,boutique_hotel,200€ - 400€
188758,Musée Carnavalet - Histoire de Paris,https://www.tripadvisor.fr/Attraction_Review-g187147-d188758-Reviews-Musee_Carnavalet_Histoire_de_Paris-Paris_Ile_de_France.html,http://carnavalet.paris.fr/,3.8050475120544434,1296,48.857353,2.362364,A,"16 rue des Francs-Bourgeois, 75003 Paris France",,attraction,Musées spécialisés,Musées,,,,,,
188875,Rollers & Coquillages,https://www.tripadvisor.fr/Attraction_Review-g187147-d188875-Reviews-Rollers_Coquillages-Paris_Ile_de_France.html,http://www.rollers-coquillages.org,3.060122013092041,25,48.85251,2.367827,A,"37 Boulevard Bourdon, 75004 Paris France",,attraction,Visites de la ville,Visites guidées,,,,,,
188978,Hotel Bourg Tibourg,,,4.267549991607666,349,48.857254,2.356107,H,,€€€€,,,,,,,,hotel,200€ - 400€
188987,Gammes de . . .,https://www.tripadvisor.fr/Attraction_Review-g187147-d188987-Reviews-Gammes_de-Paris_Ile_de_France.html,,,0,48.85855,2.35328,A,"17 rue du Temple Fourth Arrondissement, 75004 Paris France",,,Boutiques de cadeaux ou spécialisées,Shopping,,,,,,
189228,Hotel Jeanne D'Arc,,,4.389811038970947,888,48.855507,2.363276,H,,€€,,,,,,,,hotel,200€ - 400€
189231,Berthillon,https://www.tripadvisor.fr/Attraction_Review-g187147-d189231-Reviews-Berthillon-Paris_Ile_de_France.html,http://www.berthillon.fr,3.9411020278930655,502,48.8518,2.356786,A,"31 Rue St.-Louis-en-l'Île, 75004 Paris France",,attraction,Boutiques de cadeaux ou spécialisées,Shopping,,,,,,
189693,Grand Hôtel Malher,,,4.071868419647217,240,48.855804,2.361192,H,,€€€,,,,,,,,hotel,200€ - 400€
190683,Conciergerie,https://www.tripadvisor.fr/Attraction_Review-g187147-d190683-Reviews-Conciergerie-Paris_Ile_de_France.html,http://www.paris-conciergerie.fr,3.5774216651916504,2143,48.85608,2.34615,A,"2 Boulevard du Palais, 75001 Paris France",,attraction,"Sites et monuments, Sites historiques",Sites touristiques,,,,,,
190975,Mémorial des Martyrs de la Déportation,https://www.tripadvisor.fr/Attraction_Review-g187147-d190975-Reviews-Memorial_des_Martyrs_de_la_Deportation-Paris_Ile_de_France.html,http://www.cheminsdememoire.gouv.fr/en/memorial-des-martyrs-de-la-deportation,4.104193210601807,384,48.851875,2.352404,A,"Square de l'Ile de France, 75004 Paris France",,attraction,"Sites historiques, Sites et monuments",Sites touristiques,,,,,,
191144,Place Sainte-Catherine,https://www.tripadvisor.fr/Attraction_Review-g187147-d191144-Reviews-Place_Ste_Catherine-Paris_Ile_de_France.html,,3.2362563610076904,58,48.855385,2.362733,A,"Marais, Paris France",,attraction,Sites et monuments,Sites touristiques,,,,,,
191242,Église Saint-Gervais Saint-Protais,https://www.tripadvisor.fr/Attraction_Review-g187147-d191242-Reviews-Eglise_Saint_Gervais_Saint_Protais-Paris_Ile_de_France.html,,3.5963895320892334,118,48.85536,2.35522,A,"13 rue des Barres, 75004 Paris France",,attraction,Sites sacrés et religieux,Sites touristiques,,,,,,
194210,Hôtel des Ambassadeurs de Hollande,https://www.tripadvisor.fr/Attraction_Review-g187147-d194210-Reviews-Hotel_des_Ambassadeurs_de_Hollande-Paris_Ile_de_France.html,,2.78008770942688,7,48.85815,2.35805,A,"47 Rue Vieille du Temple, 75004 Paris France",,attraction,"Bâtiments architecturaux, Sites historiques",Sites touristiques,,,,,,
194223,Hotel de Nice,,,3.806507587432861,363,48.856644,2.355636,H,,€€,,,,,,,,hotel,100€ - 200€
194270,Hotel des Deux Iles,,,4.352651119232178,328,48.852303,2.355008,H,,€€€,,,,,,,,hotel,200€ - 400€
194271,Le Presbytère,,,3.2818353176116943,181,48.858974,2.350262,H,,€€€,,,,,,,,hotel,> 400€
194304,Hotel du Jeu de Paume,,,4.511422157287598,670,48.85222,2.356297,H,,€€€,,,,,,,,hotel,200€ - 400€
194312,Rue Saint-Louis-en-l'Île,https://www.tripadvisor.fr/Attraction_Review-g187147-d194312-Reviews-Rue_Saint_Louis_en_l_Ile-Paris_Ile_de_France.html,,3.560148239135742,130,48.851845,2.356549,A,"Île Saint-Louis, 75004 Paris France",,attraction,Sites et monuments,Sites touristiques,,,,,,
194313,La Ferme Saint-Aubin,https://www.tripadvisor.fr/Attraction_Review-g187147-d194313-Reviews-La_Ferme_Saint_Aubin-Paris_Ile_de_France.html,,3.0377068519592285,24,48.85254,2.3547,A,"76 rue Saint Louis en L Ile, 75004 Paris France",,attraction,Boutiques de cadeaux ou spécialisées,Shopping,,,,,,
194314,Pylônes,https://www.tripadvisor.fr/Attraction_Review-g187147-d194314-Reviews-Pylones-Paris_Ile_de_France.html,http://www.facebook.com/pylones,3.411567211151123,133,48.8523,2.35511,A,"57 Rue Saint Louis en L' Ile, 75004 Paris France",,attraction,Boutiques de cadeaux ou spécialisées,Shopping,,,,,,
195135,Le Tropic Café,https://www.tripadvisor.fr/Attraction_Review-g187147-d195135-Reviews-Le_Tropic_Cafe-Paris_Ile_de_France.html,http://www.letropicafe.fr,2.8062140941619877,27,48.85936,2.34935,A,"22 rue des Lombards, 75004 Paris France",,attraction,Bars et clubs,Vie nocturne,,,,,,
195455,Hotel de la Place des Vosges,,,3.223982334136963,262,48.85442,2.36517,H,,€€,,,,,,,,hotel,200€ - 400€
195456,Hôtel Saint-Paul Le Marais,,,3.675687313079834,157,48.855446,2.362106,H,,€€,,,,,,,,hotel,200€ - 400€
195458,Hotel de Sully,,,2.6202402114868164,196,48.854183,2.364228,H,,€€,,,,,,,,hotel,100€ - 200€
195459,Maison de Victor Hugo,https://www.tripadvisor.fr/Attraction_Review-g187147-d195459-Reviews-Maison_de_Victor_Hugo-Paris_Ile_de_France.html,http://maisonsvictorhugo.paris.fr,3.6112935543060303,652,48.85482,2.36613,A,"6 Place des Vosges, 75004 Paris France",,attraction,"Sites historiques, Musées d'histoire","Sites touristiques, Musées",,,,,,
207662,Hotel France Louvre,,,2.9051260948181152,371,48.856434,2.356149,H,,€€,,,,,,,,hotel,100€ - 200€
208055,Hôtel de Ville,https://www.tripadvisor.fr/Attraction_Review-g187147-d208055-Reviews-Hotel_de_Ville-Paris_Ile_de_France.html,https://en.parisinfo.com/paris-museum-monument/71544/Hotel-de-Ville-de-Paris,3.931801080703736,1505,48.85668,2.35157,A,"Place de l'Hôtel de Ville Entrée au 5 rue Lobeau ou au 29 rue de Rivoli, 75004 Paris France",,attraction,"Bâtiments gouvernementaux, Sites historiques, Sites et monuments",Sites touristiques,,,,,,
208440,Les Bains du Marais,https://www.tripadvisor.fr/Attraction_Review-g187147-d208440-Reviews-Les_Bains_du_Marais-Paris_Ile_de_France.html,http://www.bainsdumarais.fr/,2.1184778213500977,260,48.85947,2.355863,A,"31 rue des Blancs Manteaux, 75004 Paris France",,attraction,Spas,Spas et bien-être,,,,,,
208830,À l'Olivier,https://www.tripadvisor.fr/Attraction_Review-g187147-d208830-Reviews-A_l_Olivier-Paris_Ile_de_France.html,http://www.alolivier.com/,2.8492431640625,10,48.85612,2.35683,A,"23 rue de Rivoli, 75004 Paris France",,attraction,Boutiques de cadeaux ou spécialisées,Shopping,,,,,,
208967,L'ile Aux Images,https://www.tripadvisor.fr/Attraction_Review-g187147-d208967-Reviews-L_ile_Aux_Images-Paris_Ile_de_France.html,http://lileauximages.com,2.8790385723114014,9,48.85213,2.35558,A,"51 Rue Saint-Louis en l'Île, 75004 Paris France",,attraction,Galeries d'art,"Shopping, Musées",,,,,,
208979,Antiquités Éric Dubois,https://www.tripadvisor.fr/Attraction_Review-g187147-d208979-Reviews-Antiquites_Eric_Dubois-Paris_Ile_de_France.html,,,0,48.85256,2.34957,A,"4eme Arrondissement, Paris France",,,Boutiques de cadeaux ou spécialisées,Shopping,,,,,,
209761,Île Saint-Louis,https://www.tripadvisor.fr/Attraction_Review-g187147-d209761-Reviews-Ile_Saint_Louis-Paris_Ile_de_France.html,http://www.tripsavvy.com/paris-neighborhoods-ile-saint-louis-1517738,4.128471851348877,4780,48.851875,2.356904,A,"44 rue Saint Louis en L Ile, 75004 Paris France",,attraction,"Îles, Quartiers, Sites et monuments","Sites touristiques, Autre, Espaces verts et parcs",,,,,,
212432,Les Scandaleuses,https://www.tripadvisor.fr/Attraction_Review-g187147-d212432-Reviews-Les_Scandaleuses-Paris_Ile_de_France.html,,,0,48.85719,2.359,A,"26 rue des Ecouffes, 75004 Paris France",,,Clubs et bars gays,Vie nocturne,,,,,,
219989,Les Tournelles,,,4.577897071838379,533,48.85698,2.364526,H,,€€€,,,,,,,,hotel,200€ - 400€
219994,Hotel de Lutece,,,4.567984580993652,586,48.852512,2.354681,H,,€€€,,,,,,,,hotel,200€ - 400€
219996,Hôtel Saint-Louis en l'Isle,,,4.2520432472229,654,48.85266,2.354191,H,,€€€,,,,,,,,hotel,200€ - 400€
230461,Hotel Paris Rivoli,,,3.849924325942993,477,48.855988,2.357207,H,,€€€€,,,,,,,,hotel,> 400€
233509,Hotel Pointe Rivoli,,,3.1185455322265625,289,48.855377,2.360289,H,,€€€,,,,,,,,hotel,200€ - 400€
234615,Hôtel De Neuve Le Marais by HappyCulture Collection,,,4.247146129608154,430,48.85391,2.363241,H,,€€€,,,,,,,,hotel,200€ - 400€
235549,Hotel Duo,,,4.207158088684082,851,48.85807,2.352898,H,,€€€,,,,,,,,hotel,200€ - 400€
235552,Hôtel de la Bretonnerie,,,4.340860843658447,782,48.858276,2.35607,H,,€€€,,,,,,,,hotel,100€ - 200€
235555,Castex Hotel,,,3.93274188041687,786,48.852673,2.365902,H,,€€€,,,,,,,,hotel,100€ - 200€
235561,Hotel Charles V,,,3.3007287979125977,35,48.853554,2.361842,H,,€€€,,,,,,,,boutique_hotel,200€ - 400€
235629,Hôtel du Vieux Marais,,,3.1921586990356445,202,48.859055,2.355531,H,,€€,,,,,,,,hotel,100€ - 200€
236512,Hôtel Saint-Louis Marais,,,3.5132222175598145,326,48.852093,2.363263,H,,€€€,,,,,,,,hotel,200€ - 400€
239641,Hotel de la Herse d'Or,,,2.9724555015563965,223,48.853752,2.366166,H,,€€,,,,,,,,hotel,100€ - 200€
239650,Auberge de Jeunesse MIJE  Fourcy,,,4.1351728439331055,969,48.85476,2.359256,H,,€€,,,,,,,,hostel,100€ - 200€
242971,Hotel Beaubourg,,,4.182730674743652,858,48.86021,2.353253,H,,€€,,,,,,,,hotel,100€ - 200€
244951,Galerie des enfants,https://www.tripadvisor.fr/Attraction_Review-g187147-d244951-Reviews-Galerie_des_enfants_du_Centre_Pompidou-Paris_Ile_de_France.html,http://www.centrepompidou.fr/fr/lib/Jeune-public,2.7788212299346924,10,48.856857,2.350672,A,"4th Centre Pompidou, 75004 Paris France",,attraction,Musées d'art,Musées,,,,,,
244988,Concerts du Dimanche matin,https://www.tripadvisor.fr/Attraction_Review-g187147-d244988-Reviews-Concerts_du_Dimanche_Matin-Paris_Ile_de_France.html,,2.7514395713806152,2,48.8573,2.34698,A,"Châtelet Théâtre Musical de Paris, 1 pl du Châtelet, 1st, Paris France",,attraction,Concerts,Concerts et spectacles,,,,,,
244994,Duc des Lombards,https://www.tripadvisor.fr/Attraction_Review-g187147-d244994-Reviews-Duc_des_Lombards-Paris_Ile_de_France.html,http://www.ducdeslombards.com/,3.5851778984069824,282,48.859592,2.348654,A,"42 rue des Lombards, 75001 Paris France",,attraction,Clubs et bars de jazz,"Vie nocturne, Concerts et spectacles",,,,,,
245052,Ircam,https://www.tripadvisor.fr/Attraction_Review-g187147-d245052-Reviews-Ircam-Paris_Ile_de_France.html,http://www.ircam.fr,2.7864930629730225,3,48.85946,2.35174,A,"1 Place Igor Stravinsky, 75004 Paris France",,attraction,Spectacles,Concerts et spectacles,,,,,,
245090,Le Latina,https://www.tripadvisor.fr/Attraction_Review-g187147-d245090-Reviews-Le_Latina-Paris_Ile_de_France.html,,2.7768373489379883,3,48.85869,2.35359,A,"20 rue du Temple 4th, 75004 Paris France",,attraction,Salles de cinéma,Jeux et divertissements,,,,,,
245098,Le Point Virgule,https://www.tripadvisor.fr/Attraction_Review-g187147-d245098-Reviews-Le_Point_Virgule-Paris_Ile_de_France.html,http://Www.lepointvirgule.com,3.582471370697021,110,48.85783,2.35693,A,"7 rue Ste Croix de la Bretonnerie 4th, 75004 Paris France",,attraction,Comedy Clubs,"Vie nocturne, Jeux et divertissements, Concerts et spectacles",,,,,,
245104,Les Blancs Manteaux,https://www.tripadvisor.fr/Attraction_Review-g187147-d245104-Reviews-Les_Blancs_Manteaux-Paris_Ile_de_France.html,http://www.blancsmanteaux.fr,3.040061712265014,41,48.85885,2.357531,A,"15 rue des Blancs Manteaux, 75004 Paris France",,attraction,Théâtres,Concerts et spectacles,,,,,,
245114,Musée de la Magie - Musée des Automates,https://www.tripadvisor.fr/Attraction_Review-g187147-d245114-Reviews-Museum_of_Magic_Museum_of_Automates-Paris_Ile_de_France.html,http://www.museedelamagie.com/,2.8143317699432373,7,48.85312,2.36121,A,"11 rue Saint Paul, 75004 Paris France",,attraction,"Spectacles, Musées spécialisés","Musées, Concerts et spectacles",,,,,,
246227,Quartier juif,https://www.tripadvisor.fr/Attraction_Review-g187147-d246227-Reviews-Jewish_quarter-Paris_Ile_de_France.html,,3.2644705772399902,66,48.85886,2.35896,A,"71 rue du Temple Musée d'art et d'histoire du Judaïsme, 75003 Paris France",,attraction,Quartiers,"Sites touristiques, Autre",,,,,,
260562,Hôtel Le Compostelle,,,3.632614135742188,239,48.85659,2.357028,H,,€€,,,,,,,,hotel,100€ - 200€
267705,Le Cox,https://www.tripadvisor.fr/Attraction_Review-g187147-d267705-Reviews-Le_Cox-Paris_Ile_de_France.html,http://cox.fr,2.7537314891815186,65,48.858173,2.354966,A,"15 rue des Archives, 75004 Paris France",,attraction,Clubs et bars gays,Vie nocturne,,,,,,
292257,Le Marais ,https://www.tripadvisor.fr/Attraction_Review-g187147-d292257-Reviews-Le_Marais-Paris_Ile_de_France.html,,4.8035173416137695,12747,48.85879,2.358595,A,"3e Arrondissement 3e Arrondissement, 75003 Paris France",,attraction,Quartiers,"Sites touristiques, Autre",,,,,,
302993,Hotel le Notre Dame,,,4.33843994140625,1216,48.85327,2.346632,H,,€€€,,,,,,,,hotel,200€ - 400€
308526,MIJE Maubuisson Hostel,,,3.681192636489868,286,48.85534,2.35532,H,,,,,,,,,,hostel,
308527,MIJE Marais,,,3.928821563720703,456,48.85403,2.359754,H,,,,,,,,,,hostel,
310851,Office de Tourisme et des Congrès de Paris,https://www.tripadvisor.fr/Attraction_Review-g187147-d310851-Reviews-Office_du_Tourisme_et_des_Congres_de_Paris-Paris_Ile_de_France.html,http://www.parisinfo.com,3.441564083099365,2443,48.85691,2.352793,A,"29 rue de Rivoli Hôtel de Ville, 75004 Paris France",,attraction,Offices de tourisme,Ressources touristiques,,,,,,
314440,Centre Pompidou,https://www.tripadvisor.fr/Attraction_Review-g187147-d314440-Reviews-Centre_Pompidou-Paris_Ile_de_France.html,http://www.centrepompidou.fr,3.7492716312408447,6064,48.860622,2.352234,A,"Place Georges Pompidou, 75004 Paris France",,attraction,"Bâtiments architecturaux, Musées d'art","Sites touristiques, Musées",,,,,,
316641,Hotel Bastille Speria,,,3.429335832595825,37,48.85393,2.367498,H,,€€€,,,,,,,,hotel,200€ - 400€
325241,Mariage Frères,https://www.tripadvisor.fr/Attraction_Review-g187147-d325241-Reviews-Mariage_Freres-Paris_Ile_de_France.html,http://www.mariagefreres.com/,3.622863531112671,197,48.857845,2.356628,A,"30 rue du Bourg Tibourg 4e, 75004 Paris France",,attraction,Boutiques de cadeaux ou spécialisées,Shopping,,,,,,
487589,Paris Plage,https://www.tripadvisor.fr/Attraction_Review-g187147-d487589-Reviews-Paris_Plage-Paris_Ile_de_France.html,,3.141773462295532,252,48.856853,2.347877,A,Paris France,,attraction,Plages,"Espaces verts et parcs, Activités de plein air",,,,,,
523181,Le BHV Marais,https://www.tripadvisor.fr/Attraction_Review-g187147-d523181-Reviews-Le_BHV_Marais-Paris_Ile_de_France.html,http://www.bhv.fr/en/,3.252180814743042,487,48.857185,2.353231,A,"52 Rue de Rivoli, 75004 Paris France",,attraction,Centres commerciaux,Shopping,,,,,,
523182,Blasphème,https://www.tripadvisor.fr/Attraction_Review-g187147-d523182-Reviews-Blaspheme-Paris_Ile_de_France.html,,,0,48.8519,2.35622,A,"37 Rue St. Louis en L'Ile, Paris France",,,Boutiques de cadeaux ou spécialisées,Shopping,,,,,,
531809,Quartier de l'Ancien Cloître,https://www.tripadvisor.fr/Attraction_Review-g187147-d531809-Reviews-Quartier_de_l_Ancien_Cloitre-Paris_Ile_de_France.html,http://www.parisrues.com/rues04/paris-avant-04-rue-du-cloitre-notre-dame.html,3.0477120876312256,28,48.85312,2.35072,A,"Rue du Cloître-Notre-Dame, 75004 Paris France",,attraction,Quartiers,"Sites touristiques, Autre",,,,,,
532207,Hôtel de Lauzun,https://www.tripadvisor.fr/Attraction_Review-g187147-d532207-Reviews-Hotel_de_Lauzun-Paris_Ile_de_France.html,,3.129920959472656,32,48.8517,2.35905,A,"17 quai D Anjou, 75004 Paris France",,attraction,"Sites historiques, Bâtiments architecturaux",Sites touristiques,,,,,,
532331,Maison européenne de la photographie,https://www.tripadvisor.fr/Attraction_Review-g187147-d532331-Reviews-La_Maison_Europeenne_de_la_Photographie-Paris_Ile_de_France.html,http://www.mep-fr.org/us/default_test_ok.htm,3.575134515762329,252,48.855076,2.359272,A,"82 rue Francois Miron, 75004 Paris France",,attraction,Musées spécialisés,Musées,,,,,,
546504,Izrael - Le Monde des Épices,https://www.tripadvisor.fr/Attraction_Review-g187147-d546504-Reviews-Izrael_Le_Monde_des_Epices-Paris_Ile_de_France.html,http://www.foodandwine.com/slideshows/worlds-best-spice-shops/5,3.0599350929260254,59,48.85572,2.35653,A,"30 rue Francois Miron, 75004 Paris France",,attraction,Boutiques de cadeaux ou spécialisées,Shopping,,,,,,
549934,Mémorial De La Shoah,https://www.tripadvisor.fr/Attraction_Review-g187147-d549934-Reviews-Memorial_De_La_Shoah-Paris_Ile_de_France.html,http://www.memorialdelashoah.org/,4.119303226470947,1169,48.85493,2.356014,A,"17 rue Geoffroy L Asnier, 75004 Paris France",,attraction,Musées d'histoire,Musées,,,,,,
565827,Pratic Hotel,,,2.9249908924102783,307,48.85527,2.362489,H,,€€,,,,,,,,hotel,100€ - 200€
568921,Hotel Emile,,,3.849072217941284,336,48.855354,2.361083,H,,€€,,,,,,,,hotel,100€ - 200€
587896,Grand Hotel du Loiret,,,3.666627883911133,297,48.8569,2.355193,H,,€€,,,,,,,,hotel,100€ - 200€
588215,3 Rooms,,,,0,48.85736,2.35534,H,,€€,,,,,,,,,100€ - 200€
596179,Hotel Andrea,,,3.5646471977233887,326,48.858105,2.350421,H,,€€,,,,,,,,hotel,100€ - 200€
606879,Chez Richard,https://www.tripadvisor.fr/Attraction_Review-g187147-d606879-Reviews-Chez_Richard-Paris_Ile_de_France.html,http://aubergechezrichard.blogspot.com/,2.6228179931640625,2,48.85774,2.35767,A,"37 rue Vieille du Temple, 75004 Paris France",,attraction,Bars et clubs,Vie nocturne,,,,,,
622186,Vert d'Absinthe,https://www.tripadvisor.fr/Attraction_Review-g187147-d622186-Reviews-Vert_d_Absinthe-Paris_Ile_de_France.html,http://www.vertdabsinthe.com/,2.9226198196411133,26,48.85529,2.36239,A,"11 rue d Ormesson, 75004 Paris France",,attraction,Boutiques de cadeaux ou spécialisées,Shopping,,,,,,
630709,Cave a Bulles,https://www.tripadvisor.fr/Attraction_Review-g187147-d630709-Reviews-Cave_a_Bulles-Paris_Ile_de_France.html,http://www.caveabulles.fr/,3.2041232585906982,44,48.86103,2.35045,A,"45 rue Quincampoix, 75004 Paris France",,attraction,Boutiques de cadeaux ou spécialisées,Shopping,,,,,,
636096,Hotel Turenne Le Marais,,,4.18118143081665,663,48.855145,2.363376,H,,€€€,,,,,,,,hotel,200€ - 400€
641585,Hotel Caron,,,4.448271751403809,481,48.855015,2.362546,H,,€€€,,,,,,,,hotel,200€ - 400€
644822,Tumbleweed,https://www.tripadvisor.co.uk/Attraction_Review-g187147-d644822-Reviews-Tumbleweed-Paris_Ile_de_France.html,http://tumbleweedparis.blogspot.com/,,25,48.85581,2.36374,A,"19 rue de Turenne, 75004 Paris France",,,Boutiques de cadeaux ou spécialisées,Shopping,,,,,,
650183,Hotel Sansonnet,,,3.0081136226654053,2,48.85813,2.35273,H,,,,,,,,,,hotel,
652724,Bike About Tours,https://www.tripadvisor.fr/Attraction_Review-g187147-d652724-Reviews-Bike_About_Tours-Paris_Ile_de_France.html,http://www.bikeabouttours.com,4.434333324432373,3277,48.85551,2.35594,A,"17 rue du Pont Louis Philippe Le Peloton Café, 75004 Paris France",,attraction,Balades à vélo,"Visites guidées, Activités de plein air",,,,,,
695097,Au Bourguignon du Marais,https://www.tripadvisor.co.uk/Restaurant_Review-g187147-d695097-Reviews-Au_Bourguignon_du_Marais-Paris_Ile_de_France.html,http://www.facebook.com/AU-BOURGUIGNON-DU-MARAIS-58639818532,4.310409069061279,1170,48.855595,2.357685,R,"52 rue Francois Miron 75004 PARIS, 75004 Paris France",€€€,,,,Restaurants,sit_down,"Gastropub, French, European, Vegetarian Friendly, Gluten Free Options","Vegetarian Friendly, Gluten Free Options",,
695128,Auberge de la Reine Blanche,https://www.tripadvisor.co.uk/Restaurant_Review-g187147-d695128-Reviews-Auberge_de_la_Reine_Blanche-Paris_Ile_de_France.html,http://www.aubergedelareineblanche.fr/,4.179728031158447,578,48.851562,2.357411,R,"30, rue de St-Louis-en-l'Ile, 75004 Paris France",€€€,,,,Restaurants,sit_down,"French, European",,,
695171,Bistrot de L'Oulette,https://www.tripadvisor.co.uk/Restaurant_Review-g187147-d695171-Reviews-Bistrot_de_L_Oulette-Paris_Ile_de_France.html,http://www.l-oulette.com/,4.2000579833984375,799,48.85556,2.367353,R,"38 rue des Tournelles Bastille, 75004 Paris France",€€€,,,,Restaurants,sit_down,"French, European, Vegetarian Friendly",Vegetarian Friendly,,< 50€
695179,Bel Canto,https://www.tripadvisor.co.uk/Restaurant_Review-g187147-d695179-Reviews-Bel_Canto-Paris_Ile_de_France.html,http://www.lebelcanto.com/,4.480277061462402,731,48.85462,2.354553,R,"72 quai de l Hotel de Ville, 75004 Paris France",€€€€,,,,Restaurants,sit_down,"French, European, Vegetarian Friendly",Vegetarian Friendly,,
695185,Benoit,https://www.tripadvisor.co.uk/Restaurant_Review-g187147-d695185-Reviews-Benoit-Paris_Ile_de_France.html,http://www.benoit-paris.com/,3.933593988418579,1679,48.858433,2.349866,R,"20 rue Saint Martin, 75004 Paris France",€€€€,,,,Restaurants,sit_down,"French, European",,,100€ - 200€
695212,Brasserie Bofinger,https://www.tripadvisor.co.uk/Restaurant_Review-g187147-d695212-Reviews-Brasserie_Bofinger-Paris_Ile_de_France.html,https://www.bofingerparis.com/?utm_source=Listings&utm_medium=Yext&utm_campaign=BOF,3.732285737991333,3802,48.853775,2.367817,R,"5--7 Rue de la Bastille, 75004 Paris France",€€€,,,,Restaurants,sit_down,"French, Seafood, European, Vegetarian Friendly",Vegetarian Friendly,,< 50€
695214,Brasserie de l'Isle Saint Louis,https://www.tripadvisor.co.uk/Restaurant_Review-g187147-d695214-Reviews-Brasserie_de_l_Isle_Saint_Louis-Paris_Ile_de_France.html,http://www.labrasserie-isl.fr,3.19246506690979,494,48.85299,2.353521,R,"55 quai de Bourbon, 75004 Paris France",€€€,,,,Restaurants,sit_down,"French, Bar, European",,,50€ - 100€
695240,Cafe Beaubourg,https://www.tripadvisor.co.uk/Restaurant_Review-g187147-d695240-Reviews-Cafe_Beaubourg-Paris_Ile_de_France.html,http://cafebeaubourg.com/,3.1206958293914795,454,48.860207,2.350861,R,"43 rue Saint Merri Beaubourg, 75004 Paris France",€€€,,,,Restaurants,sit_down,"French, Bar, Cafe, European, Vegetarian Friendly",Vegetarian Friendly,,
714918,Camille,https://www.tripadvisor.co.uk/Restaurant_Review-g187147-d714918-Reviews-Camille-Paris_Ile_de_France.html,,4.1520609855651855,977,48.857777,2.360784,R,"24 rue des Francs Bourgeois Molto comodo per visitare i musei, 75003 Paris France",€€€,,,,Restaurants,sit_down,"French, European, Vegetarian Friendly",Vegetarian Friendly,,
714984,Chez Marianne,https://www.tripadvisor.co.uk/Restaurant_Review-g187147-d714984-Reviews-Chez_Marianne-Paris_Ile_de_France.html,http://www.facebook.com/pages/Chez-Marianne/108450692551432,3.0744216442108154,1575,48.857864,2.358577,R,"2 rue des Hospitalieres St Gervais, 75004 Paris France",€€€,,,,Restaurants,sit_down,"Lebanese, Mediterranean, Middle Eastern, Israeli, Vegetarian Friendly, Vegan Options, Kosher","Vegetarian Friendly, Vegan Options, Kosher",,< 50€
715023,Autour du Saumon,https://www.tripadvisor.co.uk/Restaurant_Review-g187147-d715023-Reviews-Autour_du_Saumon-Paris_Ile_de_France.html,http://www.autourdusaumon.eu/,4.398536682128906,346,48.855618,2.357772,R,"60 rue Francois Miron, 75004 Paris France",€€€,,,,Restaurants,sit_down,"European, Scandinavian",,,
715042,Dame Tartine,https://www.tripadvisor.co.uk/Restaurant_Review-g187147-d715042-Reviews-Dame_Tartine-Paris_Ile_de_France.html,http://www.facebook.com/DameTartineParis,3.412431001663208,370,48.859543,2.351514,R,"2 rue Brisemiche, 75004 Paris France",€€€,,,,Restaurants,fast_food,"French, European",,,
715046,De bouche a oreille,https://www.tripadvisor.co.uk/Restaurant_Review-g187147-d715046-Reviews-De_bouche_a_oreille-Paris_Ile_de_France.html,,,0,48.85448,2.3672,R,"Bastille place des Vosges 15 rue des Tournelles, 75004 Paris France",,,,,Restaurants,sit_down,French,,,
718003,Galerie 88,https://www.tripadvisor.co.uk/Restaurant_Review-g187147-d718003-Reviews-Galerie_88-Paris_Ile_de_France.html,http://lagalerie88.fr,3.576805830001831,153,48.85487,2.353689,R,"Hotel de Ville 88 quai de l Hotel de Ville 88 Quai de L'hotel de Ville, 75004 Paris France",€,,,,Restaurants,sit_down,"French, Mediterranean, European, Healthy, Vegan Options, Vegetarian Friendly","Vegan Options, Vegetarian Friendly",,
718009,Georges,https://www.tripadvisor.co.uk/Restaurant_Review-g187147-d718009-Reviews-Georges-Paris_Ile_de_France.html,http://restaurantgeorgesparis.com/,3.4058687686920166,2593,48.859966,2.351961,R,"19 rue Beaubourg Centre Georges Pompidou, 75004 Paris France",€€€€,,,,Restaurants,sit_down,"French, Vegetarian Friendly",Vegetarian Friendly,,
718031,Hippopotamus Bastille,https://www.tripadvisor.co.uk/Restaurant_Review-g187147-d718031-Reviews-Hippopotamus_Bastille-Paris_Ile_de_France.html,https://restaurants.hippopotamus.fr/hippopotamus-steakhouse-619731c1bc2a,3.266420602798462,225,48.853703,2.368794,R,"1 boulevard Beaumarchais, 75004 Paris France",€€€,,,,Restaurants,sit_down,European,,,< 50€
718063,Isami Zushi,https://www.tripadvisor.co.uk/Restaurant_Review-g187147-d718063-Reviews-Isami_Zushi-Paris_Ile_de_France.html,,3.401804208755493,153,48.85046,2.355089,R,"4, quai d'Orleans, lle Saint-Louis, 75004 Paris France",€€€€,,,,Restaurants,sit_down,"Japanese, Asian, Sushi",,,50€ - 100€
718111,L'Ambroisie,https://www.tripadvisor.co.uk/Restaurant_Review-g187147-d718111-Reviews-L_Ambroisie-Paris_Ile_de_France.html,http://www.ambroisie-paris.com/,3.9726054668426514,526,48.855362,2.364534,R,"9 Place des Vosges, 75004 Paris France",€€€€,,,,Restaurants,sit_down,"French, European",,,
718129,L'As du Fallafel,https://www.tripadvisor.co.uk/Restaurant_Review-g187147-d718129-Reviews-L_As_du_Fallafel-Paris_Ile_de_France.html,http://l-as-du-fallafel.zenchef.com,4.190227508544922,4766,48.857372,2.359024,R,"34 rue des Rosiers, 75004 Paris France",€,,,,Restaurants,sit_down,"Fast food, Mediterranean, Middle Eastern, Israeli, Vegetarian Friendly, Vegan Options, Kosher","Vegetarian Friendly, Vegan Options, Kosher",,< 50€
718157,L'Enoteca,https://www.tripadvisor.co.uk/Restaurant_Review-g187147-d718157-Reviews-L_Enoteca-Paris_Ile_de_France.html,http://www.enoteca.fr/,3.561377048492432,380,48.853428,2.361661,R,"25 rue Charles V, 75004 Paris France",€€€,,,,Restaurants,sit_down,"Italian, Vegetarian Friendly",Vegetarian Friendly,,50€ - 100€
718165,L'Escale du Liban,https://www.tripadvisor.co.uk/Restaurant_Review-g187147-d718165-Reviews-L_Escale_du_Liban-Paris_Ile_de_France.html,https://www.facebook.com/LEscaleDuLiban,3.27614426612854,81,48.85583,2.358889,R,"1 rue Ferdinand Duval, 75004 Paris France",€€€,,,,Restaurants,sit_down,"Lebanese, Mediterranean, Vegetarian Friendly",Vegetarian Friendly,,
718178,L'Ilot Vache,https://www.tripadvisor.co.uk/Restaurant_Review-g187147-d718178-Reviews-L_Ilot_Vache-Paris_Ile_de_France.html,http://www.lilotvache.fr/,4.286387920379639,652,48.85185,2.356443,R,"35 rue Saint Louis en L Ile, 75004 Paris France",€€€,,,,Restaurants,sit_down,"French, European, Vegetarian Friendly, Gluten Free Options","Vegetarian Friendly, Gluten Free Options",,100€ - 200€
718188,L'Orangerie Paris,https://www.tripadvisor.co.uk/Restaurant_Review-g187147-d718188-Reviews-L_Orangerie_Paris-Paris_Ile_de_France.html,http://www.orangerieparis.fr/,4.160660743713379,576,48.851536,2.357486,R,"28 rue Saint Louis en L Ile, 75004 Paris France",€€€,,,,Restaurants,sit_down,"French, European, Vegetarian Friendly",Vegetarian Friendly,,
718639,La Chaumiere,https://www.tripadvisor.co.uk/Restaurant_Review-g187147-d718639-Reviews-La_Chaumiere-Paris_Ile_de_France.html,,3.356820106506348,446,48.852913,2.353356,R,"4 rue Jean du Bellay, 75004 Paris France",€€€,,,,Restaurants,sit_down,"French, European, Vegetarian Friendly",Vegetarian Friendly,,
718705,La Perla Bar Paris,https://www.tripadvisor.co.uk/Restaurant_Review-g187147-d718705-Reviews-La_Perla_Bar_Paris-Paris_Ile_de_France.html,http://www.laperla-paris.com/,3.231130599975586,300,48.855858,2.356199,R,"26 rue Francois Miron, 75004 Paris France",€€€,,,,Restaurants,sit_down,"Mexican, Latin, Central American, Vegetarian Friendly",Vegetarian Friendly,,< 50€
718729,Sherry Butt,https://www.tripadvisor.co.uk/Restaurant_Review-g187147-d718729-Reviews-Sherry_Butt-Paris_Ile_de_France.html,http://www.sherrybuttparis.com,3.6691861152648926,136,48.853306,2.364081,R,"20 rue Beautreillis, 75004 Paris France",€€€,,,,Restaurants,sit_down,,,,< 50€
718750,Tour d'Argent,https://www.tripadvisor.co.uk/Restaurant_Review-g187147-d718750-Reviews-Tour_d_Argent-Paris_Ile_de_France.html,http://www.tourdargent.com/,4.544183731079102,2175,48.849915,2.35501,R,"15 quai de la Tournelle, 75005 Paris France",€€€€,,,,Restaurants,sit_down,"French, Vegetarian Friendly",Vegetarian Friendly,,200€ - 400€
718765,Leon de Bruxelles,https://www.tripadvisor.co.uk/Restaurant_Review-g187147-d718765-Reviews-Leon_de_Bruxelles-Paris_Ile_de_France.html,http://restaurants.leon-de-bruxelles.fr/fr/s/moules-frites/bastille/10001,3.847003221511841,794,48.85402,2.368613,R,"3 boulevard Beaumarchais, 75004 Paris France",€€€,,,,Restaurants,sit_down,"Belgian, Seafood, Gastropub",,,< 50€
719053,Le Bucheron,https://www.tripadvisor.co.uk/Restaurant_Review-g187147-d719053-Reviews-Le_Bucheron-Paris_Ile_de_France.html,,3.7096781730651855,198,48.855785,2.35993,R,"Marais 9 rue du Roi de Sicile, 75004 Paris France",€€€,,,,Restaurants,sit_down,"French, European, Italian, Vegetarian Friendly",Vegetarian Friendly,,
719073,Le Chant des Voyelles,https://www.tripadvisor.co.uk/Restaurant_Review-g187147-d719073-Reviews-Le_Chant_des_Voyelles-Paris_Ile_de_France.html,http://www.lechantdesvoyelles.com/,2.924738645553589,425,48.858974,2.350107,R,"2 rue des Lombards, 75004 Paris France",€€€,,,,Restaurants,sit_down,"French, European, Vegetarian Friendly",Vegetarian Friendly,,
719095,Le Coupe Gorge,https://www.tripadvisor.co.uk/Restaurant_Review-g187147-d719095-Reviews-Le_Coupe_Gorge-Paris_Ile_de_France.html,http://www.lecoupegorge.com,4.319206714630127,515,48.85745,2.350545,R,"2 rue de la Coutellerie, 75004 Paris France",€€€,,,,Restaurants,sit_down,"Gastropub, French, European, Vegetarian Friendly, Vegan Options, Gluten Free Options","Vegetarian Friendly, Vegan Options, Gluten Free Options",,< 50€
719116,Le Flore en l'Ile,https://www.tripadvisor.co.uk/Restaurant_Review-g187147-d719116-Reviews-Le_Flore_en_l_Ile-Paris_Ile_de_France.html,http://www.lefloreenlile.fr/,3.81050968170166,594,48.85288,2.353289,R,"42 quai D Orleans, 75004 Paris France",€€€,,,,Restaurants,sit_down,"French, Gastropub, Vegetarian Friendly",Vegetarian Friendly,,< 50€
719147,Le Loir dans la Theiere,https://www.tripadvisor.co.uk/Restaurant_Review-g187147-d719147-Reviews-Le_Loir_dans_la_Theiere-Paris_Ile_de_France.html,http://leloirdanslatheiere.com/,3.814443588256836,1111,48.85635,2.36112,R,"3 rue des Rosiers, 75004 Paris France",€€€,,,,Dessert,sit_down,"French, European, Vegetarian Friendly",Vegetarian Friendly,,
719184,Le Paradis du Fruit,https://www.tripadvisor.co.uk/Restaurant_Review-g187147-d719184-Reviews-Le_Paradis_du_Fruit-Paris_Ile_de_France.html,http://www.leparadisdufruit.fr,3.2797648906707764,119,48.853638,2.367478,R,"1 rue des Tournelles, 75004 Paris France",€€€,,,,Restaurants,,"Vegetarian Friendly, Vegan Options","Vegetarian Friendly, Vegan Options",,
719447,Le Temps des cerises,https://www.tripadvisor.co.uk/Restaurant_Review-g187147-d719447-Reviews-Le_Temps_des_cerises-Paris_Ile_de_France.html,http://www.letempsdescerises-restaurant.fr,4.276785850524902,611,48.852592,2.364208,R,"Marais 31 rue de la Cerisaie, 75004 Paris France",€€€,,,,Restaurants,sit_down,"French, European, Vegetarian Friendly",Vegetarian Friendly,,< 50€
719461,le trumilou,https://www.tripadvisor.co.uk/Restaurant_Review-g187147-d719461-Reviews-Le_trumilou-Paris_Ile_de_France.html,http://www.letrumilou.fr,4.2075629234313965,486,48.854794,2.353863,R,"84 quai de l Hotel de Ville, 75004 Paris France",€€€,,,,Restaurants,sit_down,"French, European",,,< 50€
719509,Les Chimeres,https://www.tripadvisor.co.uk/Restaurant_Review-g187147-d719509-Reviews-Les_Chimeres-Paris_Ile_de_France.html,http://www.facebook.com/Les-Chim%C3%A8res-128669590668336,3.2201716899871826,193,48.85544,2.36001,R,"133 rue Saint Antoine, 75004 Paris France",€€€,,,,Restaurants,sit_down,"French, European, Bar, Pub, Vegetarian Friendly",Vegetarian Friendly,,
719566,Ma Bourgogne,https://www.tripadvisor.co.uk/Restaurant_Review-g187147-d719566-Reviews-Ma_Bourgogne-Paris_Ile_de_France.html,http://www.ma-bourgogne.fr/,3.464993953704834,847,48.856205,2.365047,R,"19 Place des Vosges, 75004 Paris France",€€€,,,,Restaurants,sit_down,"French, European",,,
719581,Mariage Freres,https://www.tripadvisor.co.uk/Restaurant_Review-g187147-d719581-Reviews-Mariage_Freres-Paris_Ile_de_France.html,http://www.mariagefreres.com,4.218949794769287,463,48.857746,2.356484,R,"30 rue du Bourg Tibourg, 75004 Paris France",€€€,,,,Restaurants,sit_down,"French, European, Vegetarian Friendly",Vegetarian Friendly,,
719825,Le Petit Bofinger,https://www.tripadvisor.co.uk/Restaurant_Review-g187147-d719825-Reviews-Le_Petit_Bofinger-Paris_Ile_de_France.html,http://www.petitbofingerbastille.com/,3.138314247131348,106,48.85377,2.36795,R,"6 rue de la Bastille, 75004 Paris France",€€€,,,,Restaurants,,"French, European",,,
719835,Piment Cafe,https://www.tripadvisor.co.uk/Restaurant_Review-g187147-d719835-Reviews-Piment_Cafe-Paris_Ile_de_France.html,,3.117583036422729,35,48.8564,2.36248,R,"15 rue de Sevigne Marais, 75004 Paris France",€,,,,Restaurants,sit_down,"American, Brew Pub, Street Food",,,< 50€
775337,Grizzli Cafe,https://www.tripadvisor.co.uk/Restaurant_Review-g187147-d775337-Reviews-Grizzli_Cafe-Paris_Ile_de_France.html,http://www.grizzlicafe.fr/,3.6469786167144775,203,48.8586,2.349992,R,"7 rue Saint Martin, 75004 Paris France",€€€,,,,Restaurants,sit_down,"French, European, Vegetarian Friendly",Vegetarian Friendly,,< 50€
775354,Le Tresor,https://www.tripadvisor.co.uk/Restaurant_Review-g187147-d775354-Reviews-Le_Tresor-Paris_Ile_de_France.html,http://restaurantletresor.com/,3.865204572677612,594,48.85711,2.357774,R,"9 rue du Tresor Le Marais, 75004 Paris France",€€€,,,,Restaurants,sit_down,"French, European, Gastropub, Vegetarian Friendly, Vegan Options","Vegetarian Friendly, Vegan Options",,< 50€
775930,Le Petit Dakar,https://www.tripadvisor.co.uk/Restaurant_Review-g187147-d775930-Reviews-Le_Petit_Dakar-Paris_Ile_de_France.html,http://www.lepetitdakar.com/,3.902465343475342,186,48.858044,2.361242,R,"6 rue Elzevir, 75003 Paris France",€€€,,,,Restaurants,sit_down,African,,,< 50€
777478,Oneophilo,https://www.tripadvisor.co.uk/Restaurant_Review-g187147-d777478-Reviews-Oneophilo-Paris_Ile_de_France.html,,,0,48.856613,2.352222,R,Paris France,,,,,Restaurants,,,,,
779433,Fuxia,https://www.tripadvisor.co.uk/Restaurant_Review-g187147-d779433-Reviews-Fuxia-Paris_Ile_de_France.html,http://www.fuxia.fr/,3.319077253341675,254,48.85559,2.357503,R,"50 rue Francois Miron, 75004 Paris France",€€€,,,,Restaurants,sit_down,"Italian, European, Vegetarian Friendly, Vegan Options","Vegetarian Friendly, Vegan Options",,< 50€
782037,Les Pietons,https://www.tripadvisor.co.uk/Restaurant_Review-g187147-d782037-Reviews-Les_Pietons-Paris_Ile_de_France.html,http://www.lespietons.com/,3.642951250076294,520,48.85914,2.349886,R,"8 rue des Lombards, 75004 Paris France",€€€,,,,Restaurants,sit_down,"Mediterranean, European, Spanish, Catalan, Vegetarian Friendly",Vegetarian Friendly,,< 50€
782261,L'Alivi,https://www.tripadvisor.co.uk/Restaurant_Review-g187147-d782261-Reviews-L_Alivi-Paris_Ile_de_France.html,http://www.restaurant-alivi.com/,4.223509788513184,572,48.85648,2.357231,R,"27 rue du Roi de Sicile, 75004 Paris France",€€€,,,,Restaurants,sit_down,"French, Mediterranean, European, Vegetarian Friendly",Vegetarian Friendly,,< 50€
782264,Kyo,https://www.tripadvisor.co.uk/Restaurant_Review-g187147-d782264-Reviews-Kyo-Paris_Ile_de_France.html,https://www.facebook.com/Restaurant-japonais-KYO-228660530537922/,3.758547782897949,223,48.857143,2.355187,R,"9 rue de la Verrerie, 75004 Paris France",€€€,,,,Restaurants,sit_down,"Japanese, Sushi, Asian, Vegetarian Friendly",Vegetarian Friendly,,< 50€
782882,Black dog,https://www.tripadvisor.co.uk/Restaurant_Review-g187147-d782882-Reviews-Black_dog-Paris_Ile_de_France.html,http://blackdog-bar.com/666/,4.409800052642822,308,48.859425,2.349142,R,"26 rue des Lombards, 75004 Paris France",€€€,,,,Restaurants,sit_down,"French, Barbecue, Steakhouse, Argentinian",,,50€ - 100€
782973,Dans le Noir ? Paris,https://www.tripadvisor.co.uk/Restaurant_Review-g187147-d782973-Reviews-Dans_le_Noir_Paris-Paris_Ile_de_France.html,http://paris.danslenoir.com,4.28479528427124,3932,48.86136,2.350626,R,"51 rue Quincampoix, 75004 Paris France",€€€,,,,Restaurants,sit_down,"French, Healthy, Vegetarian Friendly, Vegan Options, Gluten Free Options","Vegetarian Friendly, Vegan Options, Gluten Free Options",,50€ - 100€
783245,Bar du Bistrot Beaubourg,https://www.tripadvisor.co.uk/Restaurant_Review-g187147-d783245-Reviews-Bar_du_Bistrot_Beaubourg-Paris_Ile_de_France.html,http://www.facebook.com/BBB-Bar-du-Bistrot-Beaubourg-174956792529822/,3.131880044937134,204,48.859985,2.349803,R,"18 rue de la Reynie, 75004 Paris France",€,,,,Restaurants,sit_down,"French, European",,,< 50€
783281,Thai Spices,https://www.tripadvisor.co.uk/Restaurant_Review-g187147-d783281-Reviews-Thai_Spices-Paris_Ile_de_France.html,http://www.facebook.com/pages/Thai-Spices/345910515482017,4.502070426940918,562,48.852665,2.360397,R,"5 rue de l ave Maria, 75004 Paris France",€€€,,,,Restaurants,sit_down,"Thai, Vegetarian Friendly, Vegan Options","Vegetarian Friendly, Vegan Options",,< 50€
784877,Le Baba Bourgeois,https://www.tripadvisor.co.uk/Restaurant_Review-g187147-d784877-Reviews-Le_Baba_Bourgeois-Paris_Ile_de_France.html,,2.9339311122894287,3,48.84965,2.35559,R,"5 quai de la Tournelle, 75005 Paris France",€€€,,,,Restaurants,sit_down,,,,< 50€
786517,Les Marronniers,https://www.tripadvisor.co.uk/Restaurant_Review-g187147-d786517-Reviews-Les_Marronniers-Paris_Ile_de_France.html,http://www.lesmarronnierssite.wordpress.com,3.871366024017334,716,48.85782,2.35458,R,"18 rue des Archives 18 Rue Des Archives, 75004 Paris France",€€€,,,,Restaurants,sit_down,"French, Bar, European, Vegetarian Friendly, Vegan Options","Vegetarian Friendly, Vegan Options",,< 50€
786580,Queen Ann,https://www.tripadvisor.co.uk/Restaurant_Review-g187147-d786580-Reviews-Queen_Ann-Paris_Ile_de_France.html,https://www.facebook.com/Queen-Ann-Salon-de-th%C3%A9-168155059898248/,3.598724126815796,77,48.86007,2.353767,R,"5 rue Simon le Franc, 75004 Paris France",€€€,,,,Restaurants,sit_down,"French, European, Vegetarian Friendly",Vegetarian Friendly,,< 50€
786885,Cafe Hugo,https://www.tripadvisor.co.uk/Restaurant_Review-g187147-d786885-Reviews-Cafe_Hugo-Paris_Ile_de_France.html,http://www.cafehugo.com,3.5658211708068848,779,48.855972,2.366541,R,"22 Place des Vosges, 75004 Paris France",€€€,,,,Restaurants,sit_down,"French, Cafe, European, Vegetarian Friendly",Vegetarian Friendly,,< 50€
787093,Tamarind,https://www.tripadvisor.co.uk/Restaurant_Review-g187147-d787093-Reviews-Tamarind-Paris_Ile_de_France.html,http://www.tamarind.fr,4.31115198135376,294,48.85559,2.358112,R,"33 rue Francois Miron, 75004 Paris France",€€€,,,,Restaurants,sit_down,"Asian, Thai, Vegetarian Friendly, Vegan Options","Vegetarian Friendly, Vegan Options",,< 50€
788284,Breakfast in America 2,https://www.tripadvisor.co.uk/Restaurant_Review-g187147-d788284-Reviews-Breakfast_in_America_2-Paris_Ile_de_France.html,http://breakfast-in-america.com/main/,3.690220355987549,555,48.85548,2.361025,R,"4 rue Malher, 75004 Paris France",€€€,,,,Restaurants,sit_down,"American, Diner, Vegetarian Friendly",Vegetarian Friendly,,< 50€
788911,Pizza Sant'Antonio,https://www.tripadvisor.co.uk/Restaurant_Review-g187147-d788911-Reviews-Pizza_Sant_Antonio-Paris_Ile_de_France.html,https://www.facebook.com/pages/Pizza-Sant-Antonio/150714821634778,3.628300189971924,581,48.856857,2.355534,R,"1 rue de la Verrerie, 75004 Paris France",€€€,,,,Restaurants,sit_down,"Italian, Pizza, European, Vegetarian Friendly",Vegetarian Friendly,,< 50€
789812,Le Dindon en Laisse,https://www.tripadvisor.co.uk/Restaurant_Review-g187147-d789812-Reviews-Le_Dindon_en_Laisse-Paris_Ile_de_France.html,http://www.facebook.com/ledindonenlaisse,3.979403257369995,231,48.85335,2.363956,R,"18 rue Beautreillis, 75004 Paris France",€€€,,,,Restaurants,sit_down,"French, European, Vegetarian Friendly",Vegetarian Friendly,,< 50€
793288,Creperie Beaubourg,https://www.tripadvisor.co.uk/Restaurant_Review-g187147-d793288-Reviews-Creperie_Beaubourg-Paris_Ile_de_France.html,http://creperiebeaubourg.com,3.832697629928589,591,48.859325,2.351378,R,"2 rue Brisemiche, 75004 Paris France",€€€,,,,Restaurants,sit_down,"French, European, Vegetarian Friendly, Vegan Options","Vegetarian Friendly, Vegan Options",,< 50€
794966,Les Bonnes Soeurs,https://www.tripadvisor.co.uk/Restaurant_Review-g187147-d794966-Reviews-Les_Bonnes_Soeurs-Paris_Ile_de_France.html,http://les-bonnes-soeurs.fr/,3.968790054321289,540,48.856007,2.366914,R,"8 rue du Pas de la Mule, 75003 Paris France",€€€,,,,Restaurants,sit_down,"French, European, Vegetarian Friendly, Vegan Options","Vegetarian Friendly, Vegan Options",,< 50€
795288,Au Petit Thai,https://www.tripadvisor.co.uk/Restaurant_Review-g187147-d795288-Reviews-Au_Petit_Thai-Paris_Ile_de_France.html,http://www.aupetitthai-marais.fr,3.8359084129333496,444,48.855698,2.360208,R,"10 rue du Roi de Sicile metro Saint Paul le Marais, 75004 Paris France",€€€,,,,Restaurants,sit_down,"Asian, Thai, Vegetarian Friendly, Vegan Options, Gluten Free Options","Vegetarian Friendly, Vegan Options, Gluten Free Options",,< 50€
795426,Tokyo Beaubourg,https://www.tripadvisor.co.uk/Restaurant_Review-g187147-d795426-Reviews-Tokyo_Beaubourg-Paris_Ile_de_France.html,http://luxe-expert.info/carte.html,3.1802659034729004,56,48.85937,2.34945,R,"20 rue des Lombards, 75004 Paris France",€€€,,,,Restaurants,sit_down,"Japanese, Sushi, Asian",,,< 50€
796186,Le Rusti,https://www.tripadvisor.co.uk/Restaurant_Review-g187147-d796186-Reviews-Le_Rusti-Paris_Ile_de_France.html,http://www.lerusti.com/,4.393157958984375,255,48.854187,2.367381,R,"8 rue des Tournelles Bastille - Le Marais, 75004 Paris France",€€€,,,,Restaurants,sit_down,"Italian, Mediterranean, European, Vegetarian Friendly, Vegan Options","Vegetarian Friendly, Vegan Options",,< 50€
796941,Le Marche,https://www.tripadvisor.co.uk/Restaurant_Review-g187147-d796941-Reviews-Le_Marche-Paris_Ile_de_France.html,https://lemarche-paris.fr/fr,3.874770641326904,513,48.85535,2.362792,R,"2 Place du Marche Sainte Catherine, 75004 Paris France",€€€,,,,Restaurants,sit_down,"French, Vegetarian Friendly, Vegan Options","Vegetarian Friendly, Vegan Options",,< 50€
799588,Chez Julien,https://www.tripadvisor.co.uk/Restaurant_Review-g187147-d799588-Reviews-Chez_Julien-Paris_Ile_de_France.html,http://www.chezjulien.paris/,3.599240303039551,875,48.8546,2.355019,R,"1 rue du Pont Louis Philippe, 75004 Paris France",€€€€,,,,Restaurants,sit_down,"French, European, Vegetarian Friendly",Vegetarian Friendly,,100€ - 200€
801204,L'imprevu,https://www.tripadvisor.co.uk/Restaurant_Review-g187147-d801204-Reviews-L_imprevu-Paris_Ile_de_France.html,http://www.imprevu-cafe.com/,3.2879881858825684,79,48.85947,2.34964,R,"7 rue Quincampoix, 75004 Paris France",€€€,,,,Restaurants,cafe,Cafe,,,< 50€
803345,La Mosaique,https://www.tripadvisor.co.uk/Restaurant_Review-g187147-d803345-Reviews-La_Mosaique-Paris_Ile_de_France.html,,3.0463011264801025,28,48.85681,2.35641,R,"56 rue du Roi de Sicile, 75004 Paris France",€,,,,Restaurants,fast_food,American,,,< 50€
804381,Nos Ancetres Les Gaulois,https://www.tripadvisor.co.uk/Restaurant_Review-g187147-d804381-Reviews-Nos_Ancetres_Les_Gaulois-Paris_Ile_de_France.html,http://www.nosancetreslesgaulois.com/,3.3714423179626465,1450,48.851685,2.356022,R,"39 rue Saint Louis en L Ile, 75004 Paris France",€€€,,,,Restaurants,sit_down,"French, European",,,< 50€
805839,Le Petit Fer a Cheval,https://www.tripadvisor.co.uk/Restaurant_Review-g187147-d805839-Reviews-Le_Petit_Fer_a_Cheval-Paris_Ile_de_France.html,http://www.cafeine.com,4.154702186584473,461,48.857464,2.35755,R,"30 rue Vieille du Temple, 75004 Paris France",€€€,,,,Restaurants,sit_down,"French, Bar, European, Vegetarian Friendly",Vegetarian Friendly,,
805948,Les Fous de l'Ile,https://www.tripadvisor.co.uk/Restaurant_Review-g187147-d805948-Reviews-Les_Fous_de_l_Ile-Paris_Ile_de_France.html,http://www.lesfousdelile.com,4.306655883789063,1226,48.85217,2.356854,R,"33 rue des 2 Ponts, 75004 Paris France",€€€,,,,Restaurants,sit_down,"French, European, Healthy, Vegetarian Friendly, Vegan Options","Vegetarian Friendly, Vegan Options",,< 50€
808712,La Chaise au Plafond,https://www.tripadvisor.co.uk/Restaurant_Review-g187147-d808712-Reviews-La_Chaise_au_Plafond-Paris_Ile_de_France.html,http://www.cafeine.com/chaise-au-plafond,3.4641928672790527,342,48.857265,2.357426,R,"10 rue du Tresor, 75004 Paris France",€€€,,,,Restaurants,sit_down,"French, European, Vegetarian Friendly",Vegetarian Friendly,,
810252,The Lizard Lounge,https://www.tripadvisor.co.uk/Restaurant_Review-g187147-d810252-Reviews-The_Lizard_Lounge-Paris_Ile_de_France.html,http://www.cheapblonde.com,3.6937780380249023,208,48.857426,2.356223,R,"18 rue du Bourg Tibourg, 75004 Paris France",€€€,,,,"Bars & Pubs, Restaurants",sit_down,"American, Pub, Bar",,,< 50€
813472,Au Bougnat,https://www.tripadvisor.co.uk/Restaurant_Review-g187147-d813472-Reviews-Au_Bougnat-Paris_Ile_de_France.html,http://www.aubougnat.com/accueil.html,4.217677116394043,1269,48.854317,2.350073,R,"26 rue Chanoinesse, 75004 Paris France",€€€,,,,Restaurants,sit_down,"French, Vegetarian Friendly",Vegetarian Friendly,,< 50€
830073,Les sommets de l'himalaya,https://www.tripadvisor.co.uk/Restaurant_Review-g187147-d830073-Reviews-Les_sommets_de_l_himalaya-Paris_Ile_de_France.html,http://www.sommethimalaya.fr,3.164564371109009,68,48.85945,2.35045,R,"75 rue Saint Martin, 75004 Paris France",€€€,,,,Restaurants,sit_down,"Indian, Middle Eastern, Pakistani",,,
858456,Aux Anysetiers Du Roy Restaurant,https://www.tripadvisor.co.uk/Restaurant_Review-g187147-d858456-Reviews-Aux_Anysetiers_Du_Roy_Restaurant-Paris_Ile_de_France.html,http://www.anysetiersduroy.com/,4.224337577819824,466,48.852455,2.354865,R,"61 rue Saint Louis en L Ile, 75004 Paris France",€€€,,,,Restaurants,sit_down,"French, European, Vegetarian Friendly",Vegetarian Friendly,,
865171,Bubar,https://www.tripadvisor.co.uk/Restaurant_Review-g187147-d865171-Reviews-Bubar-Paris_Ile_de_France.html,,3.498544931411743,41,48.853893,2.367611,R,"3 rue des Tournelles, 75004 Paris France",€€€,,,,Restaurants,sit_down,Wine Bar,,,
866311,Cucina Napoletana,https://www.tripadvisor.co.uk/Restaurant_Review-g187147-d866311-Reviews-Cucina_Napoletana-Paris_Ile_de_France.html,http://www.cucinanapoletana.fr,3.761197328567505,99,48.85281,2.366242,R,"6 rue Castex, 75004 Paris France",€€€,,,,Restaurants,sit_down,"Italian, European, Mediterranean",,,< 50€
897083,La Creperie du Cloitre,https://www.tripadvisor.co.uk/Restaurant_Review-g187147-d897083-Reviews-La_Creperie_du_Cloitre-Paris_Ile_de_France.html,,3.632980108261109,211,48.853348,2.349633,R,"rue du cloitre Notre Dame, 75004 Paris France",€€€,,,,Restaurants,sit_down,"Cafe, French",,,< 50€
946173,Casa San Pablo,https://www.tripadvisor.co.uk/Restaurant_Review-g187147-d946173-Reviews-Casa_San_Pablo-Paris_Ile_de_France.html,http://www.facebook.com/pages/Casa-San-Pablo/155766607790747,3.99737548828125,408,48.855328,2.361909,R,"4 rue de Sevigne, 75004 Paris France",€€€,,,,Restaurants,sit_down,"Latin, European, Spanish, Mediterranean, Vegetarian Friendly, Vegan Options","Vegetarian Friendly, Vegan Options",,< 50€
949442,La reserve de quasimodo,https://www.tripadvisor.co.uk/Restaurant_Review-g187147-d949442-Reviews-La_reserve_de_quasimodo-Paris_Ile_de_France.html,http://www.facebook.com/La-r%C3%A9serve-de-quasimodo-129711397725849/?modal=admin_todo_tour,3.59961199760437,190,48.85493,2.350637,R,"4 rue de la Colombe, 75004 Paris France",€€€,,,,Restaurants,sit_down,"French, European, Wine Bar, Vegetarian Friendly",Vegetarian Friendly,,< 50€
953033,chao praya,https://www.tripadvisor.co.uk/Restaurant_Review-g187147-d953033-Reviews-Chao_praya-Paris_Ile_de_France.html,,3.203600645065308,167,48.857353,2.354701,R,"20 rue de la Verrerie, 75004 Paris France",€€€,,,,Restaurants,sit_down,"Asian, Thai, Vegan Options",Vegan Options,,< 50€
983554,Le Pave des Lombards,https://www.tripadvisor.co.uk/Restaurant_Review-g187147-d983554-Reviews-Le_Pave_des_Lombards-Paris_Ile_de_France.html,http://www.lepave.fr,3.902790307998657,596,48.859055,2.349824,R,"7 rue des Lombards, 75004 Paris France",€€€,,,,Restaurants,sit_down,"French, European, Vegetarian Friendly",Vegetarian Friendly,,< 50€
1013459,Berthillon,https://www.tripadvisor.co.uk/Restaurant_Review-g187147-d1013459-Reviews-Berthillon-Paris_Ile_de_France.html,http://www.berthillon.fr/,4.237825870513916,2176,48.851833,2.3567,R,"31 rue Saint Louis en L Ile, 75004 Paris France",€€€,,,,Dessert,cafe,"French, Cafe",,,< 50€
1022207,Musee de la Magie,https://www.tripadvisor.fr/Attraction_Review-g187147-d1022207-Reviews-Museum_of_Magic-Paris_Ile_de_France.html,http://www.museedelamagie.com/,2.973078489303589,191,48.85303,2.36139,A,"11 rue Saint Paul 4th Arrondissement, 75004 Paris France",,attraction,Musées spécialisés,Musées,,,,,,
1024865,Pozzetto,https://www.tripadvisor.co.uk/Restaurant_Review-g187147-d1024865-Reviews-Pozzetto-Paris_Ile_de_France.html,http://www.pozzetto.biz/,4.274350166320801,331,48.85683,2.356261,R,"39 rue du Roi de Sicile Metro Hotel de Ville/stPaul, 75004 Paris France",€€€,,,,Dessert,cafe,"Italian, Deli",,,< 50€
1025327,Monjul,https://www.tripadvisor.co.uk/Restaurant_Review-g187147-d1025327-Reviews-Monjul-Paris_Ile_de_France.html,http://www.monjul.com,4.255329608917236,709,48.85948,2.355915,R,"28 rue des Blancs Manteaux, 75004 Paris France",€€€,,,,Restaurants,sit_down,"French, European, Healthy, Contemporary, Fusion, Vegetarian Friendly, Vegan Options","Vegetarian Friendly, Vegan Options",,< 50€
1034251,La Rotisserie d'Argent,https://www.tripadvisor.co.uk/Restaurant_Review-g187147-d1034251-Reviews-La_Rotisserie_d_Argent-Paris_Ile_de_France.html,http://tourdargent.com/la-rotisserie-dargent/,4.093578815460205,690,48.850113,2.354764,R,"19 quai de la Tournelle, 75005 Paris France",€€€,,,,Restaurants,sit_down,"French, European",,,50€ - 100€
1034252,Les Philosophes,https://www.tripadvisor.co.uk/Restaurant_Review-g187147-d1034252-Reviews-Les_Philosophes-Paris_Ile_de_France.html,http://www.cafeine.com/philosophesz,3.979692459106445,2001,48.857292,2.357423,R,"28 rue Vieille du Temple, 75004 Paris France",€€€,,,,Restaurants,cafe,"French, European, Vegetarian Friendly, Vegan Options, Gluten Free Options","Vegetarian Friendly, Vegan Options, Gluten Free Options",,
1034853,Amadeo,https://www.tripadvisor.co.uk/Restaurant_Review-g187147-d1034853-Reviews-Amadeo-Paris_Ile_de_France.html,,,0,48.85866,2.35875,R,"Rue Vielle du Temple, Paris France",,,,,Restaurants,,,,,
1035159,l' Ebouillante,https://www.tripadvisor.co.uk/Restaurant_Review-g187147-d1035159-Reviews-L_Ebouillante-Paris_Ile_de_France.html,http://www.ebouillante.fr/,3.630852699279785,267,48.854992,2.355131,R,"6 rue des Barres, 75004 Paris France",€€€,,,,Restaurants,sit_down,"French, European, Vegan Options, Vegetarian Friendly","Vegan Options, Vegetarian Friendly",,
1035214,La Tertulia,https://www.tripadvisor.co.uk/Restaurant_Review-g187147-d1035214-Reviews-La_Tertulia-Paris_Ile_de_France.html,,3.008416175842285,1,48.85555,2.36129,R,"4 rue Malher, 75004 Paris France",,,,,Restaurants,sit_down,American,,,
1035226,Le Brise Miche,https://www.tripadvisor.co.uk/Restaurant_Review-g187147-d1035226-Reviews-Le_Brise_Miche-Paris_Ile_de_France.html,http://brisemiche.fr/,4.075536727905273,666,48.859215,2.351516,R,"10 rue Brisemiche, 75004 Paris France",€€€,,,,Restaurants,sit_down,"European, Vegetarian Friendly",Vegetarian Friendly,,
1035278,Les Brochettes,https://www.tripadvisor.co.uk/Restaurant_Review-g187147-d1035278-Reviews-Les_Brochettes-Paris_Ile_de_France.html,,,0,48.85666,2.36346,R,"13 Rue, Paris France",,,,,Restaurants,,,,,
1035285,Les Mauvais Garcons,https://www.tripadvisor.co.uk/Restaurant_Review-g187147-d1035285-Reviews-Les_Mauvais_Garcons-Paris_Ile_de_France.html,http://www.les-mauvaisgarcons.fr,3.762234687805176,391,48.85679,2.355169,R,"4 rue des Mauvais Garcons, 75004 Paris France",€€€,,,,Restaurants,sit_down,"French, European",,,
1035534,Klein Holland Cafe,https://www.tripadvisor.co.uk/Restaurant_Review-g187147-d1035534-Reviews-Klein_Holland_Cafe-Paris_Ile_de_France.html,http://www.facebook.com/KleinHolland,3.1519274711608887,31,48.85637,2.35796,R,"36 rue du Roi de Sicile, 75004 Paris France",,,,,Restaurants,,,,,
1035550,The Auld Alliance Pub,https://www.tripadvisor.co.uk/Restaurant_Review-g187147-d1035550-Reviews-The_Auld_Alliance_Pub-Paris_Ile_de_France.html,http://theauldalliance.com,3.26145076751709,96,48.855442,2.359281,R,"80 rue Francois Miron, 75004 Paris France",€€€,,,,Restaurants,sit_down,"Bar, British, Pub, Scottish",,,
1035629,Sorza,https://www.tripadvisor.co.uk/Restaurant_Review-g187147-d1035629-Reviews-Sorza-Paris_Ile_de_France.html,http://www.sorza.fr,4.327561855316162,809,48.85229,2.355469,R,"51 Rue Saint Louis, 75004 Paris France",€€€,,,,Restaurants,sit_down,"Italian, French, Mediterranean, European, Vegetarian Friendly, Vegan Options","Vegetarian Friendly, Vegan Options",,< 50€
1035630,Le Colimacon,https://www.tripadvisor.co.uk/Restaurant_Review-g187147-d1035630-Reviews-Le_Colimacon-Paris_Ile_de_France.html,http://www.le-colimacon.fr,4.549214839935303,1013,48.858105,2.358109,R,"44 rue Vieille du Temple Le Marais, 75004 Paris France",€€€,,,,Restaurants,sit_down,"French, Grill, Vegetarian Friendly, Gluten Free Options","Vegetarian Friendly, Gluten Free Options",,50€ - 100€
1035638,Kiccho,https://www.tripadvisor.co.uk/Restaurant_Review-g187147-d1035638-Reviews-Kiccho-Paris_Ile_de_France.html,https://www.facebook.com/pages/Kiccho/159647494063202,3.640203714370728,187,48.857273,2.354924,R,"11 rue de la Verrerie, 75004 Paris France",€€€,,,,Restaurants,sit_down,"Japanese, Sushi, Asian, Vegetarian Friendly",Vegetarian Friendly,,
1049698,Boboli,https://www.tripadvisor.co.uk/Restaurant_Review-g187147-d1049698-Reviews-Boboli-Paris_Ile_de_France.html,http://www.boboliparis.com,3.3314640522003174,170,48.85597,2.359091,R,"13 rue du Roi de Sicile, 75004 Paris France",€€€,,,,Restaurants,sit_down,"Italian, Cafe, Vegetarian Friendly, Vegan Options","Vegetarian Friendly, Vegan Options",,< 50€
1050224,Pasta Linea,https://www.tripadvisor.co.uk/Restaurant_Review-g187147-d1050224-Reviews-Pasta_Linea-Paris_Ile_de_France.html,http://www.facebook.com/pasta.linea/,4.110353946685791,112,48.855297,2.363396,R,"9 rue de Turenne, 75004 Paris France",€,,,,Restaurants,sit_down,"Italian, Mediterranean, European, Vegetarian Friendly, Vegan Options","Vegetarian Friendly, Vegan Options",,< 50€
1053783,La Panfoulia,https://www.tripadvisor.co.uk/Restaurant_Review-g187147-d1053783-Reviews-La_Panfoulia-Paris_Ile_de_France.html,http://fr-fr.facebook.com/La.Panfoulia/,3.712037324905396,294,48.85796,2.356726,R,"7 rue Ste Croix de la Bretonnerie, 75004 Paris France",€€€,,,,Restaurants,sit_down,"French, Bar, European, Vegetarian Friendly",Vegetarian Friendly,,
1053971,Le Yono,https://www.tripadvisor.co.uk/Restaurant_Review-g187147-d1053971-Reviews-Le_Yono-Paris_Ile_de_France.html,http://www.leyono.fr/,3.4461355209350586,61,48.85777,2.357678,R,"37 rue Vieille du Temple, 75004 Paris France",€€€,,,,"Bars & Pubs, Restaurants",,"Bar, Pub",,,
1059052,Chez Rosito,https://www.tripadvisor.co.uk/Restaurant_Review-g187147-d1059052-Reviews-Chez_Rosito-Paris_Ile_de_France.html,http://www.auberge-rosito.fr,3.396693706512451,122,48.85592,2.36767,R,"4 rue du Pas de la Mule, 75003 Paris France",€€€,,,,Restaurants,sit_down,"French, Mediterranean, European",,,< 50€
1061293,La Table Des Gourmets,https://www.tripadvisor.co.uk/Restaurant_Review-g187147-d1061293-Reviews-La_Table_Des_Gourmets-Paris_Ile_de_France.html,,2.807490348815918,168,48.859207,2.34963,R,"14 rue des Lombards, 75004 Paris France",€€€,,,,Restaurants,sit_down,French,,,
1062071,Le Bistrot de la Place,https://www.tripadvisor.co.uk/Restaurant_Review-g187147-d1062071-Reviews-Le_Bistrot_de_la_Place-Paris_Ile_de_France.html,https://www.facebook.com/Bistrot-De-La-Place-130213790367182/,3.7913312911987305,393,48.855366,2.362833,R,"2 Place du Marche Sainte Catherine, 75004 Paris France",€€€,,,,Restaurants,sit_down,"French, Vegetarian Friendly",Vegetarian Friendly,,50€ - 100€
1064122,Le Verre Luisant,https://www.tripadvisor.co.uk/Restaurant_Review-g187147-d1064122-Reviews-Le_Verre_Luisant-Paris_Ile_de_France.html,,3.448802709579468,224,48.858467,2.351578,R,"64 rue de la Verrerie, 75004 Paris France",€€€,,,,Restaurants,sit_down,"Brazilian, French, European, Vegetarian Friendly",Vegetarian Friendly,,< 50€
1065438,Creperie Suzette,https://www.tripadvisor.co.uk/Restaurant_Review-g187147-d1065438-Reviews-Creperie_Suzette-Paris_Ile_de_France.html,http://www.facebook.com/pages/Creperie-Suzette/519214791489500,4.035942554473877,455,48.85778,2.360728,R,"24 rue des Francs Bourgeois, 75003 Paris France",€€€,,,,Restaurants,sit_down,"French, Vegetarian Friendly",Vegetarian Friendly,,< 50€
1078163,Chez Oscar,https://www.tripadvisor.co.uk/Restaurant_Review-g187147-d1078163-Reviews-Chez_Oscar-Paris_Ile_de_France.html,http://www.chez-oscar-1900.abcsalles.com/,3.076815605163574,60,48.85455,2.36853,R,"11 boulevard Beaumarchais, 75004 Paris France",€€€,,,,Restaurants,sit_down,French,,,< 50€
1092837,Pizza momo,https://www.tripadvisor.co.uk/Restaurant_Review-g187147-d1092837-Reviews-Pizza_momo-Paris_Ile_de_France.html,http://pizzamomo.fr/fr,3.282643795013428,258,48.855076,2.361347,R,"105 rue Saint Antoine, 75004 Paris France",€,,,,Restaurants,sit_down,"Italian, Pizza, Vegetarian Friendly",Vegetarian Friendly,,
1121890,Minori,https://www.tripadvisor.co.uk/Restaurant_Review-g187147-d1121890-Reviews-Minori-Paris_Ile_de_France.html,http://www.restaurantminori.com,3.9490716457366943,173,48.856346,2.357281,R,"14 rue Cloche Perce, 75004 Paris France",€€€,,,,Restaurants,sit_down,"Japanese, Sushi, Asian, Vegetarian Friendly, Vegan Options","Vegetarian Friendly, Vegan Options",,< 50€
1124131,la Place Royale,https://www.tripadvisor.co.uk/Restaurant_Review-g187147-d1124131-Reviews-La_Place_Royale-Paris_Ile_de_France.html,http://www.facebook.com/RestaurantLaPlaceRoyale,4.232417106628418,448,48.855167,2.3655,R,"2 B Place des Vosges, 75004 Paris France",€€€,,,,Restaurants,sit_down,"French, Vegetarian Friendly, Gluten Free Options","Vegetarian Friendly, Gluten Free Options",,< 50€
1128074,B.D.J. cafe,https://www.tripadvisor.co.uk/Restaurant_Review-g187147-d1128074-Reviews-B_D_J_cafe-Paris_Ile_de_France.html,,4.54071044921875,469,48.85566,2.363062,R,"5 rue de Jarente, 75004 Paris France",€€€,,,,Restaurants,sit_down,"French, European, Vegetarian Friendly",Vegetarian Friendly,,< 50€
1191372,Chez Hanna,https://www.tripadvisor.co.uk/Restaurant_Review-g187147-d1191372-Reviews-Chez_Hanna-Paris_Ile_de_France.html,https://chez-hanna-restaurant.fr/fr,3.678288221359253,617,48.8578,2.358236,R,"54 rue des Rosiers, 75004 Paris France",€,,,,Restaurants,sit_down,"Mediterranean, Middle Eastern, Israeli, Vegetarian Friendly, Vegan Options, Kosher","Vegetarian Friendly, Vegan Options, Kosher",,
1198145,Au Rendez-vous des amis,https://www.tripadvisor.co.uk/Restaurant_Review-g187147-d1198145-Reviews-Au_Rendez_vous_des_amis-Paris_Ile_de_France.html,http://aurendezvousdesamis.com/fr,3.810652017593384,289,48.857883,2.357203,R,"10 rue Ste Croix de la Bretonnerie, 75004 Paris France",€€€,,,,Restaurants,sit_down,"French, Bar, European, Vegetarian Friendly",Vegetarian Friendly,,
1198731,Minh Chau,https://www.tripadvisor.co.uk/Restaurant_Review-g187147-d1198731-Reviews-Minh_Chau-Paris_Ile_de_France.html,,3.3029963970184326,105,48.85723,2.35511,R,"10 rue de la Verrerie, 75004 Paris France",€,,,,Restaurants,sit_down,"Asian, Vietnamese",,,
1207588,La Belle Hortense,https://www.tripadvisor.co.uk/Restaurant_Review-g187147-d1207588-Reviews-La_Belle_Hortense-Paris_Ile_de_France.html,http://bellehortense.fr,3.809004545211792,84,48.85748,2.357524,R,"31, rue Vielle du Temple, 75004 Paris France",€€€,,,,"Restaurants, Bars & Pubs",sit_down,"French, Wine Bar",,,
1227224,Saint Louis 4eme,,,,0,48.85174,2.35675,H,,€€€,,,,,,,,,200€ - 400€
1233379,cap horn,https://www.tripadvisor.co.uk/Restaurant_Review-g187147-d1233379-Reviews-Cap_horn-Paris_Ile_de_France.html,,3.259373903274536,59,48.854218,2.365021,R,"Birague Metro Saint Paul, 75004 Paris France",€,,,,Restaurants,sit_down,International,,,< 50€
1234962,La Tartine,https://www.tripadvisor.co.uk/Restaurant_Review-g187147-d1234962-Reviews-La_Tartine-Paris_Ile_de_France.html,http://latartineparis.fr/en,3.433647394180298,270,48.855923,2.358307,R,"24 rue de Rivoli 24, Rue Rivoli, 75004, Paris, Île-de-France, 75004 Paris France",€€€,,,,Restaurants,sit_down,"Wine Bar, French",,,< 50€
1309236,Louis Philippe Cafe Restaurant,https://www.tripadvisor.co.uk/Restaurant_Review-g187147-d1309236-Reviews-Louis_Philippe_Cafe_Restaurant-Paris_Ile_de_France.html,http://www.cafelouisphilippe.com/,3.514754295349121,561,48.854523,2.354829,R,"66 quai de l Hotel de Ville, 75004 Paris France",€€€,,,,Restaurants,sit_down,"French, European, Vegetarian Friendly",Vegetarian Friendly,,< 50€
1322121,Area L',https://www.tripadvisor.co.uk/Restaurant_Review-g187147-d1322121-Reviews-Area_L-Paris_Ile_de_France.html,http://pt-br.facebook.com/AREAFOREVER,3.78396201133728,72,48.85424,2.367324,R,"10 rue des Tournelles, 75004 Paris France",€€€,,,,Restaurants,sit_down,"Lebanese, Brazilian, South American, Vegetarian Friendly",Vegetarian Friendly,,
1322272,Soluna Cafes,https://www.tripadvisor.co.uk/Restaurant_Review-g187147-d1322272-Reviews-Soluna_Cafes-Paris_Ile_de_France.html,,3.028751850128174,3,48.85443,2.35576,R,"52 rue de l Hotel de Ville, 75004 Paris France",,,,,Restaurants,,,,,
1322581,Zerestoo,https://www.tripadvisor.co.uk/Restaurant_Review-g187147-d1322581-Reviews-Zerestoo-Paris_Ile_de_France.html,,3.800055503845215,123,48.85972,2.355023,R,"41 rue des Blancs Manteaux, 75004 Paris France",€€€,,,,Restaurants,sit_down,"French, European",,,
1324490,Belma,https://www.tripadvisor.co.uk/Restaurant_Review-g187147-d1324490-Reviews-Belma-Paris_Ile_de_France.html,,,0,48.85555,2.36129,R,"4 rue Malher, 75004 Paris France",,,,,Restaurants,,,,,
1329933,Takimi,https://www.tripadvisor.co.uk/Restaurant_Review-g187147-d1329933-Reviews-Takimi-Paris_Ile_de_France.html,,3.0155022144317627,2,48.85705,2.35723,R,"24 rue Vieille du Temple, 75004 Paris France",,,,,Restaurants,,,,,
1330665,Legay Choc,https://www.tripadvisor.co.uk/Restaurant_Review-g187147-d1330665-Reviews-Legay_Choc-Paris_Ile_de_France.html,http://legaychoc.fr/,3.269105672836304,36,48.8589,2.3539,R,"45 Rue Sainte-Croix de la Bretonnerie, 75004 Paris France",€,,,,Restaurants,,French,,,
1335027,Montecao,https://www.tripadvisor.co.uk/Restaurant_Review-g187147-d1335027-Reviews-Montecao-Paris_Ile_de_France.html,,2.5199761390686035,35,48.85341,2.361078,R,"17 rue Saint Paul, 75004 Paris France",€€€,,,,Restaurants,,French,,,
1335548,Zebaar,https://www.tripadvisor.co.uk/Restaurant_Review-g187147-d1335548-Reviews-Zebaar-Paris_Ile_de_France.html,,3.298584461212158,20,48.85969,2.35503,R,"41 rue des Blancs Manteaux, 75004 Paris France",€€€,,,,Restaurants,,,,,
1335758,Akash,https://www.tripadvisor.co.uk/Restaurant_Review-g187147-d1335758-Reviews-Akash-Paris_Ile_de_France.html,http://www.akash.fr,3.5180823802948,265,48.85888,2.349647,R,"9 rue Nicolas Flamel, 75004 Paris France",€€€,,,,Restaurants,sit_down,"Indian, Vegetarian Friendly, Vegan Options","Vegetarian Friendly, Vegan Options",,
1335807,Al Solito Posto,https://www.tripadvisor.co.uk/Restaurant_Review-g187147-d1335807-Reviews-Al_Solito_Posto-Paris_Ile_de_France.html,,3.0076167583465576,122,48.8602,2.350694,R,"4 Place Edmond Michelet, 75004 Paris France",€€€,,,,Restaurants,sit_down,"Italian, Pizza, European",,,
1335980,Les Bougresses,https://www.tripadvisor.co.uk/Restaurant_Review-g187147-d1335980-Reviews-Les_Bougresses-Paris_Ile_de_France.html,http://verysedap.blogspot.com/2008/04/les-bougress,4.501891136169434,848,48.8556,2.362957,R,"6 rue de Jarente, 75004 Paris France",€€€,,,,Restaurants,sit_down,"French, European, Vegetarian Friendly, Gluten Free Options","Vegetarian Friendly, Gluten Free Options",,
1336101,Le Tarbouche,https://www.tripadvisor.co.uk/Restaurant_Review-g187147-d1336101-Reviews-Le_Tarbouche-Paris_Ile_de_France.html,,3.119812250137329,12,48.8528,2.35371,R,"81 rue Saint Louis en L Ile, 75004 Paris France",,,,,Restaurants,,Italian,,,
1336633,Cafe Francais,https://www.tripadvisor.co.uk/Restaurant_Review-g187147-d1336633-Reviews-Cafe_Francais-Paris_Ile_de_France.html,http://www.cafe-francais.fr/,3.160905361175537,374,48.853104,2.368344,R,"Entree 1 1 Place de la Bastille, 75004 Paris France",€€€,,,,Restaurants,sit_down,"French, European, Vegetarian Friendly",Vegetarian Friendly,,
1336696,Le Bobar,https://www.tripadvisor.co.uk/Restaurant_Review-g187147-d1336696-Reviews-Le_Bobar-Paris_Ile_de_France.html,,2.9757275581359863,2,48.85221,2.36546,R,"31 boulevard Henri IV, 75004 Paris France",,,,,Restaurants,,,,,
1337300,Karnile,https://www.tripadvisor.co.uk/Restaurant_Review-g187147-d1337300-Reviews-Karnile-Paris_Ile_de_France.html,,3.01557731628418,1,48.8532,2.35392,R,"12 rue Jean du Bellay, 75004 Paris France",,,,,Restaurants,,,,,
1339661,Chez Elham,https://www.tripadvisor.co.uk/Restaurant_Review-g187147-d1339661-Reviews-Chez_Elham-Paris_Ile_de_France.html,,,92,48.86004,2.349606,R,"11 rue de la Reynie, 75004 Paris France",,,,,Restaurants,,,,,
1371470,Don Giovanni,https://www.tripadvisor.co.uk/Restaurant_Review-g187147-d1371470-Reviews-Don_Giovanni-Paris_Ile_de_France.html,http://www.dongiovanniparis.com/,4.555336952209473,418,48.855686,2.357206,R,"19 rue Francois Miron, 75004 Paris France",€€€,,,,Restaurants,sit_down,"Italian, Mediterranean, European, Vegetarian Friendly, Vegan Options","Vegetarian Friendly, Vegan Options",,
1390891,Au Vieux Paris,https://www.tripadvisor.co.uk/Restaurant_Review-g187147-d1390891-Reviews-Au_Vieux_Paris-Paris_Ile_de_France.html,http://www.restaurantauvieuxparis.fr,3.757965564727783,752,48.854176,2.350185,R,"24 rue Chanoinesse, 75004 Paris France",€€€,,,,Restaurants,sit_down,"French, European, Vegetarian Friendly",Vegetarian Friendly,,
1394714,Cacao et Chocolat,https://www.tripadvisor.fr/Attraction_Review-g187147-d1394714-Reviews-Cacao_et_Chocolat-Paris_Ile_de_France.html,http://www.cacaoetchocolat.com/,2.7997326850891118,6,48.85769,2.35776,A,"36 rue Vieille du Temple, 75004 Paris France",,attraction,Boutiques de cadeaux ou spécialisées,Shopping,,,,,,
1419031,Delice House,https://www.tripadvisor.co.uk/Restaurant_Review-g187147-d1419031-Reviews-Delice_House-Paris_Ile_de_France.html,http://delicehouse.com,3.2148778438568115,46,48.85448,2.36288,R,"81 rue Saint Antoine, 75004 Paris France",€,,,,Restaurants,sit_down,"Chinese, Asian, Vietnamese",,,
1422462,Vins Des Pyrenees,https://www.tripadvisor.co.uk/Restaurant_Review-g187147-d1422462-Reviews-Vins_Des_Pyrenees-Paris_Ile_de_France.html,http://www.vinsdespyrenees.com/,3.7202882766723633,211,48.853794,2.364514,R,"25 rue Beautreillis 25 rue Beautreillis, 75004 Paris, 75004 Paris France",€€€,,,,Restaurants,sit_down,"French, European, Vegetarian Friendly",Vegetarian Friendly,,< 50€
1435274,O Fil De L'O,https://www.tripadvisor.co.uk/Restaurant_Review-g187147-d1435274-Reviews-O_Fil_De_L_O-Paris_Ile_de_France.html,,3.068251848220825,11,48.85079,2.35301,R,"2 quai de la Tournelle, 75005 Paris France",,,,,Restaurants,sit_down,"French, European",,,
1439340,Tours Notre Dame,https://www.tripadvisor.co.uk/Restaurant_Review-g187147-d1439340-Reviews-Tours_Notre_Dame-Paris_Ile_de_France.html,,2.7758288383483887,59,48.856358,2.348605,R,"Place Notre Dame, Paris France",€€€,,,,Restaurants,sit_down,Cafe,,,
1449935,L'Etincelle,https://www.tripadvisor.co.uk/Restaurant_Review-g187147-d1449935-Reviews-L_Etincelle-Paris_Ile_de_France.html,http://cafe-letincelle.fr,3.5114572048187256,191,48.85666,2.355523,R,"42 B rue de Rivoli, 75004 Paris France",€€€,,,,Restaurants,cafe,"French, Bar, Cafe, European",,,< 50€
1464432,Context,https://www.tripadvisor.fr/Attraction_Review-g187147-d1464432-Reviews-Context-Paris_Ile_de_France.html,http://www.contexttravel.com/cities/paris,4.322787284851074,444,48.85334,2.36202,A,75004 Paris France,,attraction,"Circuits de plusieurs jours, Visites culturelles, Visites historiques à la découverte du patrimoine, Visites sur le thème de la littérature, de l'art et de la musique, Circuits privés",Visites guidées,,,,,,
1492719,Crypte archéologique du parvis de Notre-Dame,https://www.tripadvisor.fr/Attraction_Review-g187147-d1492719-Reviews-Archeological_Crypt_of_the_Parvis_of_Notre_Dame-Paris_Ile_de_France.html,http://www.crypte.paris.fr/en/crypt,3.4680404663085938,590,48.85365,2.347713,A,"Place de Parvis, Ile de la Cite parvis Notre-Dame, 75004 Paris France",,attraction,Ruines anciennes,Sites touristiques,,,,,,
1500304,Le Caruso,https://www.tripadvisor.co.uk/Restaurant_Review-g187147-d1500304-Reviews-Le_Caruso-Paris_Ile_de_France.html,http://www.lecarusorestaurant.fr/,4.021827220916748,303,48.855034,2.363243,R,"3 rue de Turenne, 75004 Paris France",€€€,,,,Restaurants,sit_down,"Italian, Mediterranean, European, Vegetarian Friendly",Vegetarian Friendly,,
1501812,Duc des Lombards,https://www.tripadvisor.co.uk/Restaurant_Review-g187147-d1501812-Reviews-Duc_des_Lombards-Paris_Ile_de_France.html,http://www.ducdeslombards.com,3.216454267501831,74,48.859627,2.34866,R,"42 rue des Lombards, 75001 Paris France",€€€,,,,Restaurants,sit_down,,,,
1508037,Feria Cafe,https://www.tripadvisor.co.uk/Restaurant_Review-g187147-d1508037-Reviews-Feria_Cafe-Paris_Ile_de_France.html,http://www.feriacafe.fr/,3.2255804538726807,252,48.856884,2.355892,R,"4 rue du Bourg Tibourg 75004, 75004 Paris France",€€€,,,,Restaurants,sit_down,"French, Bar, Cafe, Vegetarian Friendly",Vegetarian Friendly,,< 50€
1515570,Special Apartments,,,3.998223781585693,225,48.852516,2.358435,H,,€€€€,,,,,,,,condo,> 400€
1516340,Korcarz,https://www.tripadvisor.co.uk/Restaurant_Review-g187147-d1516340-Reviews-Korcarz-Paris_Ile_de_France.html,http://www.korcarz.com/,3.639596700668335,184,48.857777,2.358333,R,"29 rue des Rosiers, 75004 Paris France",€,,,,"Bakeries, Dessert",sit_down,"European, Israeli, Cafe, Vegetarian Friendly, Kosher","Vegetarian Friendly, Kosher",,
1524183,Gaspard de la Nuit,https://www.tripadvisor.co.uk/Restaurant_Review-g187147-d1524183-Reviews-Gaspard_de_la_Nuit-Paris_Ile_de_France.html,http://www.legaspard.fr,4.384970188140869,441,48.8541,2.367378,R,"6 rue des Tournelles, 75004 Paris France",€€€,,,,Restaurants,sit_down,"French, European",,,50€ - 100€
1524417,Le Caveau de L'isle,https://www.tripadvisor.co.uk/Restaurant_Review-g187147-d1524417-Reviews-Le_Caveau_de_L_isle-Paris_Ile_de_France.html,http://lecaveaudelisle.com/,3.941782236099243,511,48.85165,2.35716,R,"36 rue Saint Louis en L Ile, 75004 Paris France",€€€,,,,Restaurants,sit_down,"French, European, Vegetarian Friendly",Vegetarian Friendly,,< 50€
1526800,Fontaine Stravinsky,https://www.tripadvisor.fr/Attraction_Review-g187147-d1526800-Reviews-Fontaine_Stravinsky-Paris_Ile_de_France.html,,3.277207136154175,218,48.85921,2.35162,A,"2 rue Brisemiche Place Igor Stravinsky, 75004 Paris France",,attraction,Fontaines,Sites touristiques,,,,,,
1540153,Le Cafe Livres,https://www.tripadvisor.co.uk/Restaurant_Review-g187147-d1540153-Reviews-Le_Cafe_Livres-Paris_Ile_de_France.html,http://cafe-livres.lafourchette.rest,3.326462984085083,262,48.85776,2.349567,R,"10 rue Saint Martin 10 Rue Saint-Martin, 75004, Paris, Île-de-France, 75004 Paris France",€€€,,,,Restaurants,sit_down,"French, Bar, Cafe, European",,,< 50€
1545216,Le Quasimodo Notre Dame,https://www.tripadvisor.co.uk/Restaurant_Review-g187147-d1545216-Reviews-Le_Quasimodo_Notre_Dame-Paris_Ile_de_France.html,,3.641918659210205,455,48.854332,2.349896,R,"11 rue d Arcole, 75004 Paris France",€€€,,,,Restaurants,fast_food,"French, Cafe, European, Vegetarian Friendly",Vegetarian Friendly,,< 50€
1552146,Bodega 64,https://www.tripadvisor.co.uk/Restaurant_Review-g187147-d1552146-Reviews-Bodega_64-Paris_Ile_de_France.html,http://www.facebook.com/pages/Bodega-64/107328799329588,4.145229816436768,360,48.855568,2.358062,R,"64 rue Francois Miron, 75004 Paris France",€€€,,,,Restaurants,sit_down,"Mediterranean, Spanish, Vegetarian Friendly",Vegetarian Friendly,,
1596020,Au Bouquet St. Paul,https://www.tripadvisor.co.uk/Restaurant_Review-g187147-d1596020-Reviews-Au_Bouquet_St_Paul-Paris_Ile_de_France.html,http://fb.me/bouquetsaintpaul,4.240899562835693,359,48.85461,2.362726,R,"85 rue Saint Antoine, 75004 Paris France",€€€,,,,Restaurants,sit_down,"French, Cafe, Vegetarian Friendly",Vegetarian Friendly,,< 50€
1600380,La Cuisine Paris - Cooking Classes,https://www.tripadvisor.fr/Attraction_Review-g187147-d1600380-Reviews-La_Cuisine_Paris_Cooking_Classes-Paris_Ile_de_France.html,http://www.lacuisineparis.com,4.470822811126709,2804,48.85487,2.35409,A,"80 quai de l Hotel de Ville, 75004 Paris France",,attraction,"Circuits gourmands, Cours de cuisine","Restauration, Cours et ateliers, Visites guidées",,,,,,
1638400,Les Gourmands de l'Ile,https://www.tripadvisor.co.uk/Restaurant_Review-g187147-d1638400-Reviews-Les_Gourmands_de_l_Ile-Paris_Ile_de_France.html,,2.8151745796203613,36,48.85197,2.35629,R,"52 rue Saint Louis en L Ile, 75004 Paris France",,,,,Restaurants,,French,,,
1724980,Suan Thai,https://www.tripadvisor.co.uk/Restaurant_Review-g187147-d1724980-Reviews-Suan_Thai-Paris_Ile_de_France.html,http://suanthai.fr,3.754595518112183,834,48.859386,2.353919,R,"35 rue du Temple Marais, 75004 Paris France",€€€,,,,Restaurants,sit_down,"Asian, Thai, Vegetarian Friendly, Vegan Options","Vegetarian Friendly, Vegan Options",,< 50€
1725986,Le Soleil D'Or,https://www.tripadvisor.co.uk/Restaurant_Review-g187147-d1725986-Reviews-Le_Soleil_D_Or-Paris_Ile_de_France.html,http://www.facebook.com/pages/Le-Soleil-Dor/237135486415057,3.1349470615386963,387,48.85413,2.345115,R,"15 boulevard du Palais, 75004 Paris France",€€€,,,,Restaurants,sit_down,"French, Cafe, European",,,
1726453,Le Sarah Bernhardt,https://www.tripadvisor.co.uk/Restaurant_Review-g187147-d1726453-Reviews-Le_Sarah_Bernhardt-Paris_Ile_de_France.html,https://www.facebook.com/pages/Square-Sarah-Bernhardt/159136120922008?rf=166115273406794,3.455808401107788,41,48.857563,2.347836,R,"2 Place du Chatelet, 75004 Paris France",€€€,,,,Restaurants,sit_down,"French, Cafe, European, Bar, Pub, Vegetarian Friendly",Vegetarian Friendly,,
1755379,Brasserie Les Deux Palais,https://www.tripadvisor.co.uk/Restaurant_Review-g187147-d1755379-Reviews-Brasserie_Les_Deux_Palais-Paris_Ile_de_France.html,http://www.brasserielesdeuxpalais.fr/,3.9478507041931152,969,48.85537,2.346088,R,"3 boulevard du Palais, 75004 Paris France",€€€,,,,Restaurants,sit_down,"French, Bar, European, Vegetarian Friendly, Gluten Free Options","Vegetarian Friendly, Gluten Free Options",,
1787161,Cafe Med,https://www.tripadvisor.co.uk/Restaurant_Review-g187147-d1787161-Reviews-Cafe_Med-Paris_Ile_de_France.html,http://www.isl-paris.com/ile-saint-louis/FR/produit_id_196/CafAc-Med.html,4.094571113586426,602,48.852722,2.354044,R,"77 rue Saint Louis en L Ile Ile de St Louis, 75004 Paris France",€€€,,,,Restaurants,sit_down,"French, European, Vegetarian Friendly, Vegan Options","Vegetarian Friendly, Vegan Options",,
1790137,Pavillon de l'Arsenal,https://www.tripadvisor.fr/Attraction_Review-g187147-d1790137-Reviews-Pavillon_de_l_Arsenal-Paris_Ile_de_France.html,http://www.pavillon-arsenal.com/home.php,3.0925984382629395,49,48.850716,2.362471,A,"21 boulevard Morland, 75004 Paris France",,attraction,Musées spécialisés,Musées,,,,,,
1800036,La Favorite,https://www.tripadvisor.co.uk/Restaurant_Review-g187147-d1800036-Reviews-La_Favorite-Paris_Ile_de_France.html,http://www.lafavorite-paris.com/,3.194050073623657,16,48.855278,2.361309,R,"4 rue de Rivoli 75004, 75004 Paris France",€€€,,,,Restaurants,sit_down,"French, Bar, European, Vegetarian Friendly",Vegetarian Friendly,,
1803473,Chocolaterie GIRARD Paris,https://www.tripadvisor.co.uk/Restaurant_Review-g187147-d1803473-Reviews-Chocolaterie_GIRARD_Paris-Paris_Ile_de_France.html,http://www.dragees-girard.com,3.183877468109131,13,48.85726,2.3542,R,"4 rue des Archives, 75004 Paris France",€€€,,,,Dessert,sit_down,French,,,
1815848,Le Sarrasin et le Froment Creperie,https://www.tripadvisor.co.uk/Restaurant_Review-g187147-d1815848-Reviews-Le_Sarrasin_et_le_Froment_Creperie-Paris_Ile_de_France.html,http://www.facebook.com/pages/le-sarrasin-et-le-froment-creperie/136348673095505,4.227572441101074,323,48.85269,2.354248,R,"84-86 rue St-Louis-en-l'Isle, Paris France",€,,,,Restaurants,sit_down,"French, Vegetarian Friendly, Vegan Options","Vegetarian Friendly, Vegan Options",,
1832198,Schwartz's Deli,https://www.tripadvisor.co.uk/Restaurant_Review-g187147-d1832198-Reviews-Schwartz_s_Deli-Paris_Ile_de_France.html,http://www.schwartzsdeli.fr,4.250139236450195,1332,48.857006,2.358822,R,"16 rue des Ecouffes, 75004 Paris France",€€€,,,,Restaurants,sit_down,"American, Vegetarian Friendly, Kosher","Vegetarian Friendly, Kosher",,
1840021,Le Perchoir du Dome,https://www.tripadvisor.co.uk/Restaurant_Review-g187147-d1840021-Reviews-Le_Perchoir_du_Dome-Paris_Ile_de_France.html,http://leperchoir.fr/location/le-perchoir-du-dome/,3.658531665802002,911,48.85927,2.357745,R,"53 B rue des Francs Bourgeois, 75004 Paris France",€€€€,,,,Restaurants,sit_down,"French, European, Vegetarian Friendly",Vegetarian Friendly,,
1847871,Pont de la Tournelle,https://www.tripadvisor.fr/Attraction_Review-g187147-d1847871-Reviews-Pont_de_la_Tournelle-Paris_Ile_de_France.html,,3.2743899822235107,77,48.85055,2.355368,A,"Ile Saint-Louis, 75004 Paris France",,attraction,"Ponts, Sites historiques",Sites touristiques,,,,,,
1856762,Equinox,https://www.tripadvisor.co.uk/Restaurant_Review-g187147-d1856762-Reviews-Equinox-Paris_Ile_de_France.html,http://www.okawa.fr,,455,48.857822,2.358082,R,"33 rue des Rosiers, 75004 Paris France",,,,,Restaurants,sit_down,French,,,
1863209,Amorino Paris - L’Ile Saint Louis,https://www.tripadvisor.co.uk/Restaurant_Review-g187147-d1863209-Reviews-Amorino_Paris_L_Ile_Saint_Louis-Paris_Ile_de_France.html,https://www.amorino.com/us/shop/paris-l-ile-saint-louis.1.html,4.2552032470703125,265,48.85207,2.35575,R,"47 rue Saint Louis en L Ile, 75004 Paris France",€€€,,,,"Dessert, Quick Bites",cafe,,,,
1869695,La Cafeotheque,https://www.tripadvisor.co.uk/Restaurant_Review-g187147-d1869695-Reviews-La_Cafeotheque-Paris_Ile_de_France.html,http://www.lacafeotheque.com,3.900465488433838,368,48.854225,2.355755,R,"52 rue de l Hotel de Ville, 75004 Paris France",€€€,,,,Coffee & Tea,cafe,Cafe,,,< 50€
1872851,Cafe de la Gare,https://www.tripadvisor.fr/Attraction_Review-g187147-d1872851-Reviews-Cafe_de_la_Gare-Paris_Ile_de_France.html,https://www.facebook.com/cafedelagareantony/,3.2615363597869877,98,48.859604,2.354,A,"41 rue du Temple, 75004 Paris France",,attraction,Théâtres,Concerts et spectacles,,,,,,
1877728,La Brasserie du Pied de Fouet,https://www.tripadvisor.co.uk/Restaurant_Review-g187147-d1877728-Reviews-La_Brasserie_du_Pied_de_Fouet-Paris_Ile_de_France.html,http://www.aupieddefouet.fr,3.612961530685425,191,48.854164,2.364997,R,"3 rue de Birague, 75004 Paris France",€€€,,,,Restaurants,sit_down,"French, Bar, European, Vegetarian Friendly",Vegetarian Friendly,,< 50€
1881241,Comme a la Maison,https://www.tripadvisor.co.uk/Restaurant_Review-g187147-d1881241-Reviews-Comme_a_la_Maison-Paris_Ile_de_France.html,,,36,48.85322,2.360913,R,"9 rue Saint Paul Village Saint-Paul, 75004 Paris France",,,,,Restaurants,sit_down,French,,,
1905867,La Cidrerie du Marais,https://www.tripadvisor.co.uk/Restaurant_Review-g187147-d1905867-Reviews-La_Cidrerie_du_Marais-Paris_Ile_de_France.html,https://www.facebook.com/pages/La-Cidrerie-du-Marais/184267828251080,4.156082630157471,339,48.85513,2.361677,R,"4 rue de Sevigne, 75004 Paris France",€,,,,Restaurants,sit_down,"French, Vegetarian Friendly, Vegan Options","Vegetarian Friendly, Vegan Options",,
1929987,Bistrot Marguerite,https://www.tripadvisor.co.uk/Restaurant_Review-g187147-d1929987-Reviews-Bistrot_Marguerite-Paris_Ile_de_France.html,http://www.facebook.com/pages/Bistrot-Marguerite/226723797386612,3.4816081523895264,266,48.856186,2.350862,R,"1 Place de l Hotel de Ville, 75004 Paris France",€€€,,,,Restaurants,sit_down,"French, Bar, European",,,
1938733,Chez Margot,https://www.tripadvisor.co.uk/Restaurant_Review-g187147-d1938733-Reviews-Chez_Margot-Paris_Ile_de_France.html,http://www.chez-margot.fr/,3.722705125808716,319,48.85185,2.364641,R,"25 B boulevard Henri IV, 75004 Paris France",€€€,,,,Restaurants,sit_down,"French, European, Gastropub, Vegetarian Friendly",Vegetarian Friendly,,< 50€
1946135,Nectarine,https://www.tripadvisor.co.uk/Restaurant_Review-g187147-d1946135-Reviews-Nectarine-Paris_Ile_de_France.html,http://rego.to/4bc09ef32a89ef3b8dc5f088,3.0318057537078857,30,48.85553,2.36657,R,"16 Place des Vosges, 75004 Paris France",€€€,,,,Restaurants,sit_down,French,,,
1956523,Gusto,https://www.tripadvisor.co.uk/Restaurant_Review-g187147-d1956523-Reviews-Gusto-Paris_Ile_de_France.html,http://www.gustomarais.fr,3.502842426300049,88,48.85504,2.362503,R,"4 rue Caron, 75004 Paris France",€€€,,,,Restaurants,sit_down,"Italian, European, Mediterranean",,,< 50€
1959837,Restaurant Chouchou,https://www.tripadvisor.co.uk/Restaurant_Review-g187147-d1959837-Reviews-Restaurant_Chouchou-Paris_Ile_de_France.html,http://restaurantchouchouparis.fr/a-propos-restaurant-chouchou-paris,3.5575406551361084,500,48.860043,2.348956,R,"23 Bd Sebastopol, 75001 Paris France",€€€,,,,Restaurants,sit_down,"French, Bar, European",,,
1961742,Cafe Meo 7,https://www.tripadvisor.co.uk/Restaurant_Review-g187147-d1961742-Reviews-Cafe_Meo_7-Paris_Ile_de_France.html,http://www.meo.fr,2.962601661682129,5,48.85475,2.36202,R,"95 rue Saint Antoine, 75004 Paris France",,,,,Restaurants,,,,,
1965572,Le Renard,https://www.tripadvisor.co.uk/Restaurant_Review-g187147-d1965572-Reviews-Le_Renard-Paris_Ile_de_France.html,,3.3869142532348637,118,48.858345,2.351965,R,"6 rue du Renard, 75004 Paris France",€€€,,,,Restaurants,sit_down,"French, Bar, Contemporary, European, Pub",,,< 50€
1985436,L'Arsenal,https://www.tripadvisor.co.uk/Restaurant_Review-g187147-d1985436-Reviews-L_Arsenal-Paris_Ile_de_France.html,http://www.paris-bistro.com/choisir/paris4/arsenal.html,3.4468953609466557,133,48.85393,2.364954,R,"36 rue Saint Antoine, 75004 Paris France",€€€,,,,Restaurants,,"French, Bar, Cafe, European",,,
1997492,Eye Prefer Paris Cooking Classes,https://www.tripadvisor.fr/Attraction_Review-g187147-d1997492-Reviews-Eye_Prefer_Paris_Cooking_Classes-Paris_Ile_de_France.html,http://www.eyepreferparistours.com/cooking-class/,3.3541438579559326,75,48.85504,2.36081,A,"115 rue Saint Antoine, 75004 Paris France",,attraction,Cours de cuisine,"Restauration, Cours et ateliers",,,,,,
2005563,Restaurant Micky's Deli,https://www.tripadvisor.co.uk/Restaurant_Review-g187147-d2005563-Reviews-Restaurant_Micky_s_Deli-Paris_Ile_de_France.html,http://www.123cacher.com/en/kosher_restaurant/micky-s-deli.html,3.10050106048584,87,48.85751,2.35871,R,"23 B rue des Rosiers, 75004 Paris France",€€€,,,,Restaurants,sit_down,Kosher,Kosher,,
2010332,Lutetia Ile Saint Louis,https://www.tripadvisor.co.uk/Restaurant_Review-g187147-d2010332-Reviews-Lutetia_Ile_Saint_Louis-Paris_Ile_de_France.html,,3.320122241973877,221,48.8536,2.354106,R,"33 quai de Bourbon, 75004 Paris France",€€€,,,,Restaurants,sit_down,"French, European, Bar, Pub",,,< 50€
2010575,Claude Colliot,https://www.tripadvisor.co.uk/Restaurant_Review-g187147-d2010575-Reviews-Claude_Colliot-Paris_Ile_de_France.html,http://claudecolliot.com/,3.7028164863586426,283,48.859737,2.355111,R,"40 rue des Blancs Manteaux, 75004 Paris France",€€€€,,,,Restaurants,sit_down,"French, European, Vegetarian Friendly, Vegan Options","Vegetarian Friendly, Vegan Options",,
2010582,Le Comptoir des Mers,https://www.tripadvisor.co.uk/Restaurant_Review-g187147-d2010582-Reviews-Le_Comptoir_des_Mers-Paris_Ile_de_France.html,http://comptoirdesmers.com,3.707754135131836,289,48.854713,2.363043,R,"1 rue de Turenne, 75004 Paris France",€€€,,,,Restaurants,sit_down,"French, Seafood",,,
2011470,L'Escurial,https://www.tripadvisor.co.uk/Restaurant_Review-g187147-d2011470-Reviews-L_Escurial-Paris_Ile_de_France.html,http://www.lafourchette.com,3.092791080474853,40,48.856506,2.364354,R,"29 rue de Turenne, 75003 Paris France",€€€,,,,Restaurants,sit_down,"French, Bar, European",,,
2035323,L'Ardoise 86,https://www.tripadvisor.co.uk/Restaurant_Review-g187147-d2035323-Reviews-L_Ardoise_86-Paris_Ile_de_France.html,,4.201417446136475,386,48.854843,2.362348,R,"86 rue Saint Antoine, 75004 Paris France",€€€,,,,Restaurants,cafe,"French, Bar, European, Vegetarian Friendly",Vegetarian Friendly,,< 50€
2038001,L'Etoile Manquante,https://www.tripadvisor.fr/Attraction_Review-g187147-d2038001-Reviews-L_Etoile_Manquante-Paris_Ile_de_France.html,,2.79351544380188,66,48.857586,2.357567,A,"34 rue Vieille du Temple, 75004 Paris France",,attraction,Bars et clubs,Vie nocturne,,,,,,
2042295,L'Ange 20,https://www.tripadvisor.co.uk/Restaurant_Review-g187147-d2042295-Reviews-L_Ange_20-Paris_Ile_de_France.html,http://www.lange20.com,4.497712135314941,2625,48.85592,2.367251,R,"44 rue des Tournelles, 75004 Paris France",€€€,,,,Restaurants,sit_down,"French, European",,,< 50€
2042830,Pont au Change,https://www.tripadvisor.fr/Attraction_Review-g187147-d2042830-Reviews-Pont_au_Change-Paris_Ile_de_France.html,,3.326713800430298,104,48.857002,2.346833,A,75001 Paris France,,attraction,Ponts,Sites touristiques,,,,,,
2051752,L'auberge Des Deux Ponts,https://www.tripadvisor.co.uk/Restaurant_Review-g187147-d2051752-Reviews-L_auberge_Des_Deux_Ponts-Paris_Ile_de_France.html,http://www.facebook.com/pages/Rue-des-Deux-Ponts-Paris/571257276307070,3.780681848526001,277,48.851475,2.356217,R,"7 rue des 2 Ponts, 75004 Paris France",€€€,,,,Restaurants,sit_down,"French, European",,,
2058721,Saveurs d'Atika,https://www.tripadvisor.co.uk/Restaurant_Review-g187147-d2058721-Reviews-Saveurs_d_Atika-Paris_Ile_de_France.html,http://www.saveursdatika.com,3.974203586578369,143,48.854404,2.367339,R,"14 rue des Tournelles 75004, 75004 Paris France",€€€,,,,Restaurants,sit_down,"Moroccan, Mediterranean, Middle Eastern, Vegetarian Friendly, Halal","Vegetarian Friendly, Halal",,
2076448,Eye Prefer Paris Tours,https://www.tripadvisor.fr/Attraction_Review-g187147-d2076448-Reviews-Eye_Prefer_Paris_Tours-Paris_Ile_de_France.html,http://www.eyepreferparistours.com/,4.383365631103516,763,48.85504,2.36081,A,"115 rue Saint Antoine, 75004 Paris France",,attraction,"Visites de la ville, Visites nocturnes, Circuits privés",Visites guidées,,,,,,
2084200,La Garconniere,https://www.tripadvisor.co.uk/Restaurant_Review-g187147-d2084200-Reviews-La_Garconniere-Paris_Ile_de_France.html,,3.031508684158325,4,48.85867,2.35489,R,"38 rue Ste Croix de la Bretonnerie, 75004 Paris France",,,,,Restaurants,sit_down,,,,
2087229,Le Parvis,https://www.tripadvisor.co.uk/Restaurant_Review-g187147-d2087229-Reviews-Le_Parvis-Paris_Ile_de_France.html,http://www.restaurantleparvis.fr/,3.3619720935821533,309,48.85477,2.350077,R,"3 rue d Arcole, 75004 Paris France",€€€,,,,Restaurants,sit_down,"French, Bar, European",,,
2091101,The Pure Malt,https://www.tripadvisor.co.uk/Restaurant_Review-g187147-d2091101-Reviews-The_Pure_Malt-Paris_Ile_de_France.html,http://www.thepuremalt.fr,3.410404920578003,95,48.855034,2.362549,R,"4 rue Caron, 75004 Paris France",€,,,,"Bars & Pubs, Restaurants",sit_down,"Pub, Scottish",,,< 50€
2094778,King Falafel Palace,https://www.tripadvisor.co.uk/Restaurant_Review-g187147-d2094778-Reviews-King_Falafel_Palace-Paris_Ile_de_France.html,http://www.kingfalafelpalace.com/,3.447042942047119,561,48.857185,2.359532,R,"26 rue des Rosiers, 75004 Paris France",€,,,,Restaurants,sit_down,"Fast food, Mediterranean, Middle Eastern, Israeli, Vegetarian Friendly, Vegan Options, Kosher","Vegetarian Friendly, Vegan Options, Kosher",,< 50€
2149042,Les Filles de Paris,https://www.tripadvisor.co.uk/Restaurant_Review-g187147-d2149042-Reviews-Les_Filles_de_Paris-Paris_Ile_de_France.html,http://www.lafourchette.com/2_restaurant/restaurant_Paris/restaurant_Les_Filles_de_Paris/6130/,3.066914796829224,10,48.86152,2.35068,R,"57 rue Quincampoix, 75004 Paris France",,,,,Restaurants,,French,,,
2166157,Mi Va Mi,https://www.tripadvisor.co.uk/Restaurant_Review-g187147-d2166157-Reviews-Mi_Va_Mi-Paris_Ile_de_France.html,https://www.facebook.com/Mi-Va-Mi-163725060362446/,3.6207756996154794,657,48.857365,2.359003,R,"23 rue des Rosiers, 75004 Paris France",€,,,,Restaurants,fast_food,"Fast food, Mediterranean, Middle Eastern, Israeli, Vegetarian Friendly, Vegan Options, Kosher","Vegetarian Friendly, Vegan Options, Kosher",,
2166342,Bazaar Hotel de Ville - Self Service,https://www.tripadvisor.co.uk/Restaurant_Review-g187147-d2166342-Reviews-Bazaar_Hotel_de_Ville_Self_Service-Paris_Ile_de_France.html,,3.122265100479126,31,48.85828,2.35342,R,"14 rue du Temple, 75004 Paris France",€,,,,Restaurants,,French,,,
2173597,Melodies Graphiques,https://www.tripadvisor.fr/Attraction_Review-g187147-d2173597-Reviews-Melodies_Graphiques-Paris_Ile_de_France.html,,3.0043368339538574,20,48.85498,2.35565,A,"10 rue du Pont Louis Philippe, 75004 Paris France",,attraction,Boutiques de cadeaux ou spécialisées,Shopping,,,,,,
2175970,Pom'Cannelle,https://www.tripadvisor.co.uk/Restaurant_Review-g187147-d2175970-Reviews-Pom_Cannelle-Paris_Ile_de_France.html,http://www.facebook.com/PomCannelle-150421128374330/,4.19140100479126,312,48.852016,2.356732,R,"27 rue des 2 Ponts, 75004 Paris France",€,,,,Restaurants,sit_down,"French, European, Vegetarian Friendly",Vegetarian Friendly,,
2176008,Au Lys D'Argent,https://www.tripadvisor.co.uk/Restaurant_Review-g187147-d2176008-Reviews-Au_Lys_D_Argent-Paris_Ile_de_France.html,http://www.facebook.com/pages/creperie-Au-lys-dargent/384436218235316,3.9413602352142334,328,48.85279,2.354023,R,"90 rue Saint Louis en L Ile, 75004 Paris France",€€€,,,,Restaurants,sit_down,"French, European, Vegetarian Friendly, Vegan Options, Gluten Free Options","Vegetarian Friendly, Vegan Options, Gluten Free Options",,
2184631,Royal Turenne,https://www.tripadvisor.co.uk/Restaurant_Review-g187147-d2184631-Reviews-Royal_Turenne-Paris_Ile_de_France.html,https://www.facebook.com/pages/Royal-Turenne-bistro/179199518868847?ref=br_rs,3.284964084625244,498,48.856506,2.364385,R,"Residence le Royal Turenne 24 rue de Turenne, 75003 Paris France",€€€,,,,Restaurants,sit_down,"International, French",,,
2214152,Le Sully,https://www.tripadvisor.co.uk/Restaurant_Review-g187147-d2214152-Reviews-Le_Sully-Paris_Ile_de_France.html,http://www.lesully.fr/carte-restaurant,3.1162946224212646,71,48.851006,2.362162,R,"6 boulevard Henri IV, 75004 Paris France",€€€,,,,Restaurants,cafe,"French, European",,,< 50€
2221999,Metropolitain,https://www.tripadvisor.co.uk/Restaurant_Review-g187147-d2221999-Reviews-Metropolitain-Paris_Ile_de_France.html,http://www.metroresto.fr/,,453,48.854797,2.358453,R,"8 rue de Jouy, 75004 Paris France",,,,,Restaurants,sit_down,,,,
2227687,Studio des Parfums,https://www.tripadvisor.fr/Attraction_Review-g187147-d2227687-Reviews-Studio_des_Parfums-Paris_Ile_de_France.html,http://studiodesparfums-paris.fr/en/,4.11922025680542,231,48.857372,2.356167,A,"23 rue du Bourg Tibourg, 75004 Paris France",,attraction,"Cours et ateliers, Quartiers, Boutiques de cadeaux ou spécialisées","Shopping, Cours et ateliers, Sites touristiques, Autre",,,,,,
2230824,Le Jardin de The,https://www.tripadvisor.co.uk/Restaurant_Review-g187147-d2230824-Reviews-Le_Jardin_de_The-Paris_Ile_de_France.html,,3.224007606506348,95,48.85968,2.351547,R,"10 rue Brisemiche, 75004 Paris France",€€€,,,,Restaurants,sit_down,French,,,
2235637,Princess Crepe,https://www.tripadvisor.co.uk/Restaurant_Review-g187147-d2235637-Reviews-Princess_Crepe-Paris_Ile_de_France.html,http://fr-fr.facebook.com/pages/Princess-Cr%C3%AApe/207119269321018,4.394926071166992,190,48.85636,2.358192,R,"3 rue des Ecouffes, 75004 Paris France",€,,,,Dessert,,,,,
2236962,Terrasse Sainte Catherine,https://www.tripadvisor.co.uk/Restaurant_Review-g187147-d2236962-Reviews-Terrasse_Sainte_Catherine-Paris_Ile_de_France.html,http://laterrassesaintecatherine.fr/fr,3.4278724193573,289,48.85545,2.362832,R,"7 rue Caron, 75004 Paris France",€€€,,,,Restaurants,sit_down,"Pub, Vegetarian Friendly",Vegetarian Friendly,,< 50€
2239316,Aux Tours de Notre Dame,https://www.tripadvisor.co.uk/Restaurant_Review-g187147-d2239316-Reviews-Aux_Tours_de_Notre_Dame-Paris_Ile_de_France.html,,2.390629768371582,570,48.85351,2.349313,R,"23 rue d Arcole, 75004 Paris France",€€€,,,,Restaurants,sit_down,"French, Cafe",,,
2254170,Le Sendell,https://www.tripadvisor.co.uk/Attraction_Review-g187147-d2254170-Reviews-Le_Sendell-Paris_Ile_de_France.html,https://www.facebook.com/SendellBar,,11,48.85306,2.3663,A,"13 rue Castex, 75004 Paris France",,,Bars et clubs,Vie nocturne,,,,,,
2258546,Pamela Popo,https://www.tripadvisor.co.uk/Restaurant_Review-g187147-d2258546-Reviews-Pamela_Popo-Paris_Ile_de_France.html,http://www.pamelapopo.fr/,4.2879252433776855,500,48.855835,2.356886,R,"15 rue Francois Miron, 75004 Paris France",€€€,,,,Restaurants,sit_down,"French, European, Vegetarian Friendly",Vegetarian Friendly,,
2261934,Le Jaja,https://www.tripadvisor.co.uk/Restaurant_Review-g187147-d2261934-Reviews-Le_Jaja-Paris_Ile_de_France.html,http://www.jaja-resto.com/,3.97335147857666,908,48.857674,2.357417,R,"3 rue Ste Croix de la Bretonnerie, 75004 Paris France",€€€,,,,Restaurants,sit_down,"French, European, Vegetarian Friendly, Gluten Free Options","Vegetarian Friendly, Gluten Free Options",,
2275648,HD Diner Chatelet,https://www.tripadvisor.co.uk/Restaurant_Review-g187147-d2275648-Reviews-HD_Diner_Chatelet-Paris_Ile_de_France.html,http://www.happydaysdiner.com,4.14123010635376,1143,48.859955,2.349605,R,"25 rue de la Reynie, 75001 Paris France",€€€,,,,Restaurants,sit_down,"American, Vegetarian Friendly, Vegan Options","Vegetarian Friendly, Vegan Options",,
2286717,Le 9 Birague,https://www.tripadvisor.co.uk/Restaurant_Review-g187147-d2286717-Reviews-Le_9_Birague-Paris_Ile_de_France.html,https://le9birague-chezclo.business.site/,3.322298049926758,39,48.854527,2.365119,R,"9 rue de Birague, 75004 Paris France",€€€,,,,Restaurants,sit_down,"French, European, Vegetarian Friendly",Vegetarian Friendly,,
2303907,La Droguerie,https://www.tripadvisor.co.uk/Restaurant_Review-g187147-d2303907-Reviews-La_Droguerie-Paris_Ile_de_France.html,http://www.facebook.com/pages/La-Droguerie-du-Marais/345621242191376,4.423618793487549,519,48.857815,2.358003,R,"56 rue des Rosiers, 75004 Paris France",€,,,,Dessert,sit_down,"Street Food, Algerian, French, Vegetarian Friendly",Vegetarian Friendly,,< 50€
2304659,Paris Chocolate and Pastry Food Tour,https://www.tripadvisor.fr/Attraction_Review-g187147-d2304659-Reviews-Paris_Chocolate_and_Pastry_Food_Tour-Paris_Ile_de_France.html,http://en.meetingthefrench.com/visite/chocolate-pastry-food-tour_10.htm,3.2313122749328613,77,48.85819,2.356356,A,Paris France,,attraction,Circuits gourmands,"Restauration, Visites guidées",,,,,,
2316728,4 Pat,https://www.tripadvisor.co.uk/Restaurant_Review-g187147-d2316728-Reviews-4_Pat-Paris_Ile_de_France.html,http://www.restaurant-4pat.com,4.397216320037842,573,48.859047,2.353579,R,"4 rue Saint Merri, 75004 Paris France",€,,,,Restaurants,sit_down,"Italian, French, European, Vegetarian Friendly",Vegetarian Friendly,,
2332957,Gwen Choc Boulangerie Patisseries,https://www.tripadvisor.co.uk/Restaurant_Review-g187147-d2332957-Reviews-Gwen_Choc_Boulangerie_Patisseries-Paris_Ile_de_France.html,http://www.le-site-de.com/gwen-choc-paris_59667.html,3.256608247756958,35,48.85755,2.352606,R,"5 rue du Temple, 75004 Paris France",€,,,,"Bakeries, Dessert",sit_down,French,,,
2336784,Hokkaido,https://www.tripadvisor.co.uk/Restaurant_Review-g187147-d2336784-Reviews-Hokkaido-Paris_Ile_de_France.html,,3.0409820079803467,6,48.85242,2.36737,R,"8 rue Jacques Coeur, 75004 Paris France",€,,,,Restaurants,,,,,
2337904,Le Tambour D'arcole,https://www.tripadvisor.co.uk/Restaurant_Review-g187147-d2337904-Reviews-Le_Tambour_D_arcole-Paris_Ile_de_France.html,http://letambourdarcole.fr/fr,3.118699789047241,194,48.85472,2.35,R,"5 rue d Arcole, 75004 Paris France",€€€,,,,Restaurants,sit_down,"French, Bar, European, Vegetarian Friendly",Vegetarian Friendly,,
2341973,Le Petit St Paul,https://www.tripadvisor.co.uk/Restaurant_Review-g187147-d2341973-Reviews-Le_Petit_St_Paul-Paris_Ile_de_France.html,,3.275712013244629,59,48.85438,2.36257,R,"40 rue Saint Paul, 75004 Paris France",€,,,,Restaurants,sit_down,"French, European",,,
